NAME,LATITUDE,LONGITUDE
The Place,41.0565,29.05367
The Bosphorus from The Comfy Hill,41.06984,29.04545
LOVELY APT. IN PERFECT LOCATION,41.03254,28.98153
Duplex Apartment with Terrace,41.04471,28.98567
Cosy home overlooking Bosphorus,41.09048,29.05559
"↪ Istanbul, Your second house ",41.04844,28.95254
nice home in popular area,41.0335,28.97626
Deluxe double bedroom @ Nisantasi,41.05382,28.99739
A room in galata beyoglu,41.02704,28.97588
Sea View terrace  House,41.03658,28.97213
Cosy Room in Istanbul Center,41.04902,28.99829
Örücü Palace / Princess Apartment,41.02725,28.97718
Beautiful Studio With A View,41.03089,28.98054
"COZY, CENTRAL, LOVELY&CHECK OUT THE BATHROOM!*",41.03082,28.97958
Kurucesme stunning seaview peacfull Flat,41.06464,29.0358
Double Room in Taksim,41.03467,28.98902
Charming Apartment in Kuzguncuk,41.03485,29.03155
A room with a view of Bosphorous.,41.01717,28.96325
Prince(Garden Apart),41.02752,28.97858
Private  studio bestlocation@Taksim,41.0385,28.98189
1+1 Closed to Taksim Square,41.04693,28.98002
Central Location Taksim/Cihangir ,41.03442,28.98561
Quiet room in central apartment,41.03638,28.9909
flat with garden'n' terrace taksim,41.03343,28.99057
Gümüşsuyu Apartment,41.03656,28.98873
Nisantasi Studio Apartment,41.05018,28.99015
Wonderful room with Historical View,41.03326,28.97876
Bosphorus Views,41.02945,28.97404
❛Cozy • Clean • Central • Room❜,41.03082,28.98053
Kurucesme design amazing seaview  forest room,41.06341,29.0364
Cihangir Connection,41.03103,28.984
Blue Mosque View in Sultanahmet,41.0063,28.97916
Beautiful Artist's home staycation,41.03277,28.98822
"Beautiful room in an Artist's home, staycation",41.03249,28.99102
"View, Kid-friendly, Central @Taksim",41.03625,28.99129
Room in a modern home.,40.97618,29.04442
Flat with super Golden Horn view,41.03398,28.97297
Eveything you need - as you wish,41.06496,28.95651
Single private room in shared flat,41.02893,28.9779
warm family place ..,40.98242,29.05151
Entire Flat at Cihangir/Taksim,41.03282,28.98537
flat in galata 150sqm fantastic vue,41.02543,28.97535
Entire house in central Kadikoy,40.98373,29.02865
Penthouse in Taxim -with 2 bedrooms,41.03577,28.9773
(-55%)28nts in may 300€:Best LocationDuplex@Taksim,41.03895,28.98387
Beautiful & Super Deluxe Flat,41.04753,28.9803
Friendly Family Home,40.87171,29.1291
King Suite Studio  Near Taksim Square,41.03767,28.98219
"""Homeinİstanbul"" wGreat Location",41.03224,28.98714
Nice flat in historical Galata ,41.02622,28.97488
Fully furnished bosphorus view,41.16308,29.03753
Ottoman Flat 2BR @Taksim Square,41.03614,28.98163
Apartment in the Heart of the City1,41.03919,28.98266
Charming Apt City Center Taksim,41.03293,28.98853
Kiptas Seyrantepe Residence Flat,40.9476,29.16943
Lovely Gardened House 10 minutes walking to metro,41.01694,29.06929
Nice historical apartment in Galata,41.0278,28.97696
at the center of İstanbul..,41.07005,28.98561
"Bright Room, Great Location...",41.03237,28.9869
Private room with balcony in shared flat,41.02842,28.9779
Single private room in shared flat (Middle room),41.02997,28.97612
Nice room with balcony,41.0164,29.01527
"Luxurious, specially designed...!",41.02719,28.68328
08JAN-29MAR/WINTER SUPER DISCOUNT,41.0297,28.97583
Lovely and Cozy Flat at Cihangir ,41.03023,28.98182
GORGEOUS BOSPHORUS VIEW! COMFY ROOM,41.03506,28.99193
6-Cabin Yacht with A/C,41.0787,29.08596
Stay near Bagdat Avenue - 3BR apt,40.97543,29.06553
decent quality/price balance in Ist,41.019,28.92851
Best location - Orange,41.02918,28.98331
Charming Delightful Studio@Centre 4,41.02874,28.9766
Sultan,41.02845,28.97892
Cozy apartment in Kuzguncuk,41.03382,29.03173
My nice flat in Nisantasi/ ,41.05585,28.99103
The Heart of Istanbul,41.10619,28.73866
Harem,41.02865,28.97919
Exclusive Apart with Kitchenette,41.0029,28.97787
Cozy studio apartment in Cihangir,41.03077,28.98118
Nice and Clean Lovely Room Cihangir,41.03073,28.98167
Cozy Room in the Heart of Kadıköy,40.98598,29.02667
Comfy Furnished Room in a Cozy Home,40.98627,29.02542
2  PRIVATE ROOMS IN SULTANAHMET ,41.0068,28.97874
FLAT WITH HISTORICAL VIEW,40.98441,29.02177
FULL EQUIPPED FLAT IN OLD ISTANBUL,41.01309,28.94331
"Istiklal Avenue,Sadri alisik street",41.03433,28.98221
"Apartment in Montmartre, Paris",41.03203,28.98564
CIHANGIR | Stunning Bosphorus View!,41.03297,28.98488
A boutique experience in Istanbul ,41.03324,28.9811
Sur la place de la tour de Galata,41.02437,28.9748
BLUE Mosque walking&Grand pazar مشي لكل مكان,41.01106,28.94568
"Down town,walk to everywhereوسط اسطنبول يوسف باشا",41.01232,28.94706
Eco friendly and cosy garden apt - Prime Location!,41.03136,28.98635
Cosy Flat at the Center of ISTANBUL,41.0613,28.99495
Bright and characterful in Galata!,41.02625,28.97276
"Sunny Flat for Room Price, Taksim",41.045,28.9863
Furnished Flats & Historical Room,41.05458,28.98672
"Room minuet 2TRAM Street,Yusufpasha اتفضلوااهلاًبكم",41.01077,28.94512
only 10 minutes to Sultanahmet,41.0248,28.94738
Charming Delightful Studio@Centre 3,41.02669,28.97594
"Galateia Apartments,1 BR up to 4",41.02961,28.97643
Girls Sharing room غرفة للبنات  TRAM STREET,41.01143,28.94603
Standard Suites,40.99259,29.02534
Spacious Family Apt in Kadiköy,40.99462,29.02552
1+1 65m2 Deluxe Suitler,40.99295,29.02656
Asian Side Apartment with SEA VIEW,40.97555,29.0431
Terrace Bosphorus Sea View Taksim,41.03392,28.98927
"cozy quite home, in the center ",41.03207,28.98052
"Furnished luxury apartment, Galata",41.02485,28.97338
Design chic serviced apt in Galata.,41.02485,28.97338
Modern serviced flat in Galata,41.02485,28.97338
Modern chic serviced apt in Galata,41.02485,28.97338
Charming Delightful Room@Centre,41.02922,28.97593
"top location,bright & cozy 2bdr apt",41.02841,28.97202
Lovely Room at the heart of İSTANBL,41.06208,28.99426
CENTRAL&SAFETY Location Bright Room,41.06202,28.99549
2 bedr apart 5 mins from Airport ,40.99144,28.84474
Cozy Furnished Flat in Residence,41.05783,28.99253
"Galateia  Bosphorus, 1BR w Terrace",41.02954,28.97551
Sanctuary of Peace,40.871,29.1295
Long Term Apt. Beyoglu/Center,41.03537,28.97316
Zero km to City Center -- Friendly ,41.05382,28.99028
Sweet Garden  House,41.05091,29.02262
Exclusivity in Istanbul Bosphorus View,41.03655,28.99017
Exclusivity in Istanbul City View,41.03789,28.99014
Studio apartment İstiklal Street,41.03234,28.97472
"Bosphorous View, Greenary, comfrtbl",41.08725,29.03729
pvt Apt ◆ Anatolian Side of Istnbul,41.02544,29.03525
Room for sublet IN TAKSIM/CIHANGIR,41.03042,28.98457
lovely home with sea view,40.98447,29.02221
Family  Apartment with Private Hammam,41.00409,28.97903
İstanbul Beyoğlu Cihangir,41.03323,28.98525
Full Bosphorus sea&Istanbul view ,41.02971,29.01917
120m2 private apart Taxim.,41.04099,28.98675
Walk to GRAND pazarيوسف باشا مشي لبيازيت,41.01237,28.94659
on Galata Roofs.  Super central istiklal avenue,41.03383,28.98168
Furnished Double BR with Breakfast,41.03137,28.97318
Full Bosphorus Sea View ◆ near Park,41.0309,29.01983
in the city center,41.07587,29.00994
Modern Deluxe Studio Near to Taksim,41.03788,28.98258
Modern Flat 30m to Istiklal- Taksim,41.0339,28.9826
Apartment in the Heart of the City2,41.03915,28.98273
Studio in the Heart of the City 1,41.03911,28.98266
A single room in Istanbul - Kadikoy,40.99407,29.03697
Charming Delightful Studio@Centre 2,41.02752,28.97705
"Invitation to Travel: Luxury, Quiet",41.03499,28.97238
Historic mansion center of Buyukada,40.87361,29.13289
"truly unique accommodation,Istanbul",41.0555,28.99978
"Lot's of Light, Lot's of Green!",41.08679,29.05244
"Bright flat, great view! Kadikoy",40.99609,29.0278
Charming Delightful Studio@Centre 1,41.02728,28.97705
Central Apt. in Popular Nisantaşı,41.0493,28.99618
Istanbul Postcard View (Asian Side),41.01502,29.01303
CasaLoBueno#1 Splendid Galata Tower,41.0295,28.97351
Cozy Room ANGORA - Single @ Kaboom Guest House,41.03519,28.97177
Cute apartment in center of Beyoglu,41.03255,28.98032
Cozy Flat 1BR @Taksim Square,41.03666,28.98093
FURNISHED TRIPLEX TAKSIM.LANDLORD,41.0292,28.98104
2+1 istiklal street/taksim central,41.03174,28.97717
Rooms for rent in Nişantaşı Şişli,41.05485,28.99202
"Minutes walk to center, 2 BDRM Apt",41.03749,28.97505
Pasha,41.02871,28.97935
SALE !!!City 1 bed Luxury Residence,41.06024,28.99147
fairly furnished flat @ city center,41.05274,28.99108
Ottoman istanbul..Yusufpasha Tram ترام يوسف باشا,41.01263,28.94498
Room in Central Istanbul / Cihangir,41.03044,28.98298
Near the bosphorus,41.06782,29.04236
"Couple friendly, Cute Roof w terrace in Beyoglu",41.03102,28.97484
ULTRA LUXE RESIDENCE WITH FREE SWIM.POOL ETC,41.0718,28.67921
"comfy room in Taksim, Istanbul",41.04418,28.98344
1+1 beşiktaş modern house,41.05716,29.0075
3+1 istiklal street from landlord,41.03509,28.98145
"Fair, clean & comfy Apt - Beyoglu",41.03185,28.97146
Duplex Penthouse Central Located,41.05739,28.9955
The best room for young people,41.03404,28.98117
Flats in Taksim 2 min. to square #2,41.03183,28.84544
decent price/quality balance in Ist,41.01667,28.9303
Nakkas Apart,41.0056,28.9704
Very central place-small room for 1,41.06262,28.984
"Elegant, bright, lovely sea views in Galata!",41.02618,28.9761
"Cosy charm, fabulous terrace views in Galata!",41.02496,28.97311
Room in Anatolian side of Istanbul,40.98268,29.04714
"Cosy with frescoes, terrace views in Galata!",41.02815,28.97333
Stylish gem with amazing charm and nightlife buzz!,41.03567,28.97792
2 Bedrooms & Galata & Best Design,41.02718,28.9742
"135 sqm. at Galata Tower, Beyoğlu",41.02747,28.97486
Spacious room in 2br renovated flat,41.03807,28.97582
"A Lovely, Modern, 1bd Apt in Center",41.03806,28.97582
Great flat in central Istanbul,41.03102,28.98196
5 mın.bagdad str-30 mın.prınces isl,40.98132,29.07824
flat in a safe & quiet district,41.00931,29.04331
Very Central Room With Sea View,41.03068,28.98372
Apartment flat entrance - Beyoglu,41.03008,28.97035
Beautiful Triplex in City Center,41.07538,29.03549
Nakkas Apart with Sea View,41.00503,28.97058
Very modern Apartment in Gayrettepe,41.0638,29.00437
Apartment for rent in Cihangir,41.03289,28.98485
Cozy room in 2br renovated flat,41.03806,28.97581
Historical Istanbul House @ Taksim,41.04251,28.98788
A duplex @ heart of shop & dine,41.05352,28.99886
Blue Suites by V Sultanahmet Deluxe,41.00507,28.98081
"Fully furnished penthouse, Beyoglu",41.036,28.97583
"Economic Apt @ Taksim SQ, Beyoglu",41.0343,28.97999
"cosy & comfy room, very central",41.03533,28.98769
Designer Penthouse in Trendy Bebek,41.08333,29.04047
simple&clean room with amazin view in galata,41.02626,28.97673
Bright room with balcony in 2b flat,41.03806,28.97581
Lively room in 2b renovated flat,41.03806,28.97581
"LARGE, SAFE & COMFORTABLE FLAT",41.05606,28.9832
comfortable and  central location,41.03162,28.9715
"CENTRAL PART OF ISTANBUL,TAXIM ",41.04295,28.98281
 STUDiO FLAT /ERASMUS STUDENT (İST,41.05019,28.98696
double BR @ the heart of Cihangir,41.02567,28.9751
"spacious & cozy flat @ city center, flat No.3",41.03951,28.98167
amazing room with bosphorus view in galata,41.02626,28.97673
"room, quarto, camera in a nice town",41.0097,29.04734
Cosy Double Room with Huge Terrace!,41.05193,29.00551
Modern Parisian Apartment in Galata,41.01989,28.95847
Room in Kadikoy/Istanbul,40.98628,29.03288
Cihangir Centre - Large Room ,41.03112,28.98395
Flat and roomIN OLDCITY SULTANAHMET,41.00419,28.97035
Double room in Avenue Bagdat Apart,40.97637,29.06653
"Bosphorus View, Room in Pera Taksim",41.0305,28.97325
Student Flats Student Discounts,40.99429,29.02797
Blue Suites by V 1 Sultanahmet,41.00685,28.98025
Blue Suites by V 2 Sultanahmet,41.00512,28.97901
Spatious room in Rumeli Hisari,41.08665,29.04613
Enjoy the sea view rooms & terrace,40.99825,28.92964
TAKSİM FLAT  FOR SHORT OR LONG TERM RENTİNG,41.03626,28.97344
City Centre Urban Flat,41.06254,28.98454
Full furnished flat in Beyoglu/IST,41.03837,28.98309
Designer-renovated Galata Tower Appartment,41.02699,28.97475
Pretty Room at Kadıköy Very Central,40.99408,29.02736
small house in outside of istanbul,41.14007,28.31601
Historical Flat in Galata,41.02574,28.97505
"Sultanahmet-Istanbul, Adalar Suite",41.00417,28.96604
Unique Concept in the Old City,41.00311,28.9807
BestLocation Private Studio @Taksim,41.03757,28.98204
*** Spacious FLAT with Sea View ***,40.99607,29.02497
Rooms with a Mystical Garden,41.03196,28.9879
Cozy Flat in Cihangir - Prime Location !,41.03161,28.98341
a nice place close to city center,41.00349,28.93031
COSY PLACE AT ISTANBUL NISANTASI,41.05324,28.99166
Urban Bridge Loft - 3BR - 2BA - Galata,41.02763,28.97595
Apartment with nice bosphorus view,41.0244,28.97595
Beautiful Room in the City Centre!,41.03291,28.97112
"Rooftop terrace, tower& water views",41.02565,28.97398
Comfortable full furnished and amazing view,40.98095,28.6788
simple&clean apt w/ amazing view,41.0257,28.97649
"Quiet, spacious, with patio garden",41.0304,28.98238
"Cozy, high ceilings & marble floors",41.03171,28.97994
Cosy apartment in Istanbul,40.9756,29.05965
"Light, peaceful & high ceilings",41.03116,28.98094
"White, bright and airy!",41.03207,28.98067
Penthouse with panoramic views,41.03234,28.98048
Historic Old City Studio Apt Balat1,41.02919,28.94835
Historic Old City Duplex Apt Balat3,41.02952,28.94716
YOUR HOME IN ISTANBUL,41.02731,29.08375
In the center with a good price,41.01966,28.92449
Historic Old City Studio Apt Balat2,41.02919,28.94835
Historic Old City MiniDuplex Balat4,41.02919,28.94835
Chic Quatier Botanical Heaven ,41.05093,29.00181
"Cozy Room with Terrace, City View!",41.05167,29.00572
Centrally Located Elegant Apartment,41.03249,28.98687
A Nice Flat with Bosphorus view,41.0243,29.01251
FANCY 2 BDRM MACKA APT NEAR TAKSIM,41.04298,28.99915
Weekly Monthly suits 5min. Taksim,41.04995,28.98736
Ender Guzey Museum ARThill Bodrum,41.22204,29.02467
Modern and Clean Residence in Perfect Location,41.00468,28.81231
Cozy apt in the heart of Cihangir,41.03211,28.98401
1 bedroom apartment in the center of Old Istanbul,41.02981,28.94857
Studio flat in Istanbul very good price,41.02875,28.9481
Luxury in space & full privacy,41.00394,28.97978
Comfy Central Room in A Safe Area,41.05356,28.97864
EDEN | 1Bed with Garden in CIHANGIR,41.03045,28.98389
Great Value&Close to Metro Station!,41.07231,29.0241
Villa Prinkipo mit Pool,40.87039,29.12358
❦ Great location･Economic ･Clean ❦,41.05462,28.99195
"Artist's Studio, Central & Near Taksim",41.0497,28.98836
Perfect Located HOUSE Cihangir BEYOGLU,41.03099,28.98272
Beach sea sunbath in the black sea1,41.17059,29.63018
LÜX_TEMİZ_HİJYENİK_DAİRE,41.07533,28.99873
dubleks evimin üst katı sizin ,40.94378,29.13958
"Really Turkish Hospitality Mimaroba, Büyükçekmece",41.04236,29.00527
CHOOSE THE NATURE TO REST,41.16284,29.58172
Tabiatla iç içe! Ulaşım çok kolay!,41.03261,29.17809
FUAREV FLAT 84M2 CLOSED TO AIRPORT,41.03494,28.77126
FUAREV FLAT 84M2 in a LUX COMPLEX,41.05591,28.78515
get a roommate,41.03003,28.84413
The Jewel of the Bosphorus,41.0428,29.04829
Attic for 2adults+2kids in villa ,41.23412,29.00687
"PRIVATE ROOM,CENTRAL OF MECIDIYEKOY",41.07186,29.00072
Şık aydınlık site içinde daire,41.00618,29.20436
Fancy Flat near Taksim Square (7),41.03948,28.98233
The room with Golden Horn view ,41.03027,28.94943
room at the center of istanbul,41.0475,29.00271
BAKIRKÖY SAHİL SUİTES GÜVENCESİYLE,40.97522,28.87263
1001 nights in Istanbul,41.02951,28.98356
"Cosy Apartment, full Bosphorus view",41.02998,28.98726
Private Room in Safest Area,41.07444,29.02441
Villa Bosphorus Konak,41.17503,29.08932
Nice pvt room near Sabiha airport ,40.81867,29.30315
Adorable private bedroom & bathroom,41.06002,29.0191
**STAY SAFE RULES** Elegant Flat in Istanbul Heart,41.03164,28.96941
Small room in the city center,41.01719,28.93065
Single room in Avenue Bagdat Apart,40.97589,29.0671
Big & old apartment close to Nişantaşı and Taksim,41.05378,28.98742
tree and the balcony,40.9959,29.03336
Bakırköy Sahil Suites Near Airport*,40.97531,28.87351
nıcest place,40.86749,29.30739
Do You Want Comfort and Convenience,40.97353,29.07474
Sunny&cosy vintage apt @Beyoglu,41.03597,28.97643
Historical Spacious Room in Taksim!,41.03219,28.98017
"Marvelous sea view, 80m2 penthouse",41.013,29.01541
Orange Studio Private&Great Terrace,41.04929,28.98635
Taksimde eğlence ve tarihin içinde,41.03065,28.98385
*STAY SAFE FLAT* Cheap Taksim Wooden Mansion!,41.03187,28.97283
*Stay SAFE* 48Hrs Empty! TAKSIM Charming Flat,41.03178,28.97245
*NEW RULES* to STAY SAFE Authentic Ottoman Mansion,41.03188,28.97267
Magnificent Rooms For Your Comfort,41.02003,29.01355
Furnished 3BR Apt near Taksim SQ,41.0465,28.99457
#Old City#Authentic Duplex #Terrace,41.01094,28.95067
Nice flat Central residential area,41.05886,29.00334
golden horn,41.05945,28.95132
Cool apartment in İstanbul,41.0604,28.98673
Renewed basement studio with garden,41.03806,28.97581
TAKSIM CENTER - Comfy Room / House,41.04006,28.9833
Cozy Room OLIVE   @Kaboom Guest House,41.03488,28.97242
Cosy flat at the heart of İstanbul,41.03514,28.97667
"Central Istanbul, Easy Transport",41.02672,29.03997
A gem in the Hippest Neighborhood,41.03063,28.9854
Fully furnished cosy flat in Galata,41.02424,28.97363
One bedroom apartment in Istanbul,41.07329,28.97601
Room for Rent in Istanbul Airport,41.00406,28.82735
"room,close to saw airport best spot",40.92538,29.29089
room close to sabiha gokcen airport,40.92544,29.29017
CENTRAL FLAT IN BEYOGLU,41.0368,28.97366
1+1 Modern House at the Bosphorus!!,41.04676,29.01426
Comfortable rooms in Beylikdüzü,41.00387,28.6499
Central Cihangir flat in Beyoglu,41.03404,28.98312
In the heart of Cihangir!,41.03016,28.98247
Room in Touristic Spot of Istanbul,41.03388,28.98859
ADAHAN,41.02958,28.97377
Rental Room in Istanbul Good Choice,41.08559,28.66085
Great location - w/ all connections,41.01971,28.94369
2 min Accross Metro 20min to Taksim,41.10163,29.00043
Galata and Istiklal 3 min,41.03015,28.97136
Great central apt near Bosphorous,41.04657,29.00396
Central @ ISTANBUL close to History,41.0135,28.94751
İstanbul/Taksim,41.03209,28.98303
SPACE IN HISTORICAL BOSPHORUS HOUSE,41.07012,29.04122
Studio fully serviced in the trendiest district,41.05158,28.99034
Fancy Studio in Perfect location,41.03161,28.97469
Studio in Galata area near Tram St.,41.02873,28.97717
Twin Suit fully serviced in the trendiest district,41.05183,28.99042
CasaLoBueno#2 Comfort Galata Tower,41.02471,28.97444
in the heart of Istanbul,41.03895,28.97693
"Orient Pearl, A Select Apartment Central To All",41.0327,28.97821
Ground Floor 2+1 @ TAKSIM Very Touristic,41.03913,28.98114
Quiet But Exciting Neighbourhood,41.02999,28.98078
Your home in Central Istanbul ,41.04472,28.9784
"Cozy Home & Office, Istanbul",41.08054,29.04483
"well designed flat, beyoglu",41.02846,28.97717
Comfortable apartment in Taksim,41.04387,28.9859
Deluxe Suite with Bosphorus View,41.03202,28.98465
"Apartment w. garden in Macka, Besiktas, Tesvikiye",41.04436,28.99841
loft/flat 80sqm sea vue teras,41.02939,28.9756
2 kedili daire..  :),40.94984,29.1589
Stylish & Cozy Apartment,41.02842,28.97794
"Unique Bosp. View, with Balcony Modern 24hSecurity",41.03384,28.99164
"Modern , Stylish , 2 min to tram/funicular",41.03373,28.99154
A nice stay in old İstanbul (Balat),41.03426,28.94371
Feel like in your own home in ŞİŞLİ,41.06243,28.98461
Alaaddin Apart Beyoglu,41.03485,28.97919
"Cosy,cheap,very located 1+1 house",41.03457,28.98095
Cozy & Pretty Room in Taksim Square,41.03494,28.97999
"cheap room @Purana Paltan area,Dhak",41.03815,28.97542
Luxury Studio in Beyoglu,41.03162,28.97934
Stylish Studio with Private Patio,41.03162,28.9794
Design Terrace Suit w 24/7 Security,41.03156,28.97933
Stylish Roof Suit in Beyoğlu,41.03158,28.97933
Beyoğlu Gümüşsuyu Güven ve Huzur,41.03603,28.9898
Nice Studio in the City Center ,41.06224,28.98717
Central & peaceful home @ Bostanci,40.95751,29.10458
Stunning Double Room in Besiktas!,41.05251,29.00589
modern new building in asian site,41.00107,29.10075
Exclusive and elite location (1 +1),41.03145,28.98204
Penthouse with great Bosphorus view,41.03438,29.02948
"live like a hip local, w/alcove",41.02587,28.97594
Apartment in the hearth of Beyoglu,41.03595,28.97823
UNBEATABLE LOCATION 2 BEDROOM,41.05136,28.98649
Renting Room with Sea Veaw,41.02282,29.01064
"live like a hip local, w/balcony",41.02735,28.97472
"live like a hip local, 1st floor",41.02599,28.9762
Sweet Flat in Cihangir Cukurcuma,41.03251,28.98255
"Double Room with Kitchen, perfect location",41.02985,28.97615
Economy (Interior Window) Double Room in Pera,41.03,28.97588
Apartment in the Heart of the City6,41.03906,28.98266
Apartment in the Heart of the City4,41.03856,28.983
Apartment in the Heart of the City5,41.03914,28.98302
Studio in the Heart of the City 2,41.03907,28.9827
ModernKing Suite Studio Near Taksim,41.0363,28.98305
"COMFORTABLE, CHIC, MODERN",41.09796,28.96931
Exclusive Flat Balcony,41.03556,28.98965
Tophane-Luxury&Serviced Flat 2+1,41.02762,28.98101
XFLATS-Penthouse with Bosphorus GS,41.03213,28.98043
LOVELY ROOM -Central Kadıkoy-Moda,40.98233,29.02449
"Lovely, bright, historical: Galata ",41.0283,28.97496
"Uptwins Deluxe Residence, 1+1 ",40.90959,29.21125
Asian Side Comfortable room,40.96217,29.09661
Private Room for Rent by Taksim,41.05187,28.98477
Room in Kadikoy,40.98605,29.03397
Double Room wth private garden@Pera,41.03148,28.97571
Fully furnished Flat in Old City,41.01808,28.94588
Area Apartments *Mis* Taksim    ,41.03589,28.98253
Private room central to Everywhere,40.99313,29.03461
Cozy Flat with TAKSIM Square View,41.03841,28.98338
Spacious Balcony Duplex Sultanahmet,41.00633,28.97045
Sea view Family Suite Sultanahmet,41.00633,28.97045
Super Luxury Farmhouse in Silivri,41.21394,28.08979
Seaview Penthouse Suite Sultanahmet,41.00637,28.9704
Spacious Garden Duplex Sultanahmet,41.00606,28.96999
"Sultanahmet - Istanbul, Tugra Suite",41.00417,28.96604
"Sultanahmet - Istanbul, Cumba Suite",41.00417,28.96604
"Sultanahmet-Istanbul, Sarnic Suite",41.00417,28.96604
Nice Flat at heart of İstiklal,41.03347,28.98069
Family Suite for 4 fully serviced in Nişantaşı,41.05003,28.99049
Deluxe 2 Br Apt Close 2 Blue Mosque,41.00249,28.97555
Stay Together Stay in Peace :),41.01584,29.01462
"Central, Easy Access in Sultanahmet",41.00673,28.97048
Beautiful Double Room in Besiktas,41.05167,29.00572
Superior Suite @CIHANGIR,41.03219,28.98618
Great Secure Suit at Taksim/Beyoglu,41.03892,28.98501
Cosy residence in Taksim district,41.02915,28.9813
erasmuslu ev arkdaşı ariyorum,41.04461,29.0021
"Urban Loft for 12 Guests - 5BR  - 4,5 BA  - Galata",41.02729,28.97531
Old Neighboor of Istanbul rent room,41.00044,28.932
"Great place in Buyukada, Istanbul!",40.87313,29.12668
Cozy and calm space in Tesvikiye,41.04892,28.99624
Bright clean near Istiklal Street ! (5),41.03948,28.98233
big room in nice/central apartment ,41.04768,28.98705
Charming Apartment in Golden Horn,41.03277,28.94647
Wanted:nice company :) Moda-Kadikoy,40.98443,29.02661
Studio Flat at Istanbul,40.98563,29.0238
Boğaz manzarası,41.03245,28.99075
"Big bright apt in Cihangir, Beyoglu",41.03084,28.98558
Amazing apartment in the center,41.03553,28.98484
5 min to Taksim - central & clean,41.03681,28.9816
5 min to Taksim - central & clean 2,41.03754,28.98247
COSY&SUNNY ROOM NEAR HOTELS LAND!!,41.06015,29.00296
Close to Bosphorus & Metro Station!,41.06442,29.03332
Studio Apartment in Beyoglu/TAKSIM,41.03685,28.97702
Furnished Apartment in TAKSIM      ,41.03931,28.98245
Small Studio1@TAKSIM Very Touristic,41.03951,28.98176
Small Studio@Taksim Square,41.03868,28.98284
Small Studio3@TAKSIM Very Touristic,41.03965,28.98184
Small Studio4@TAKSIM Very Touristic,41.03891,28.98295
Big Studio1 @ TAKSIM Very Touristic,41.03964,28.98186
Big Studio2 @ TAKSIM Very Touristic,41.03965,28.98187
Big Studio3 @ TAKSIM Very Touristic,41.03896,28.98292
1+1 Suit 1 @ TAKSIM very Touristic,41.03964,28.98186
1+1 Suit 2 @ TAKSIM very Touristic,41.03964,28.98185
1+1 Suit 3 @ TAKSIM very Touristic,41.03965,28.98184
2+1 Suit @ TAKSIM very Touristic,41.03962,28.98184
Apartment located in Besiktas ,41.04705,29.00739
Large groups-GalataTower-5room-4Bdrm- 4Bth -1st FL,41.02715,28.97417
Spacious and Cosy Apartment @Talatpaşa //PERPA,41.06384,28.96594
Designer Loft in Asmalimescit,41.03017,28.97896
Open View with Daylight,40.99508,29.035
Special Penthouse @Taksim Square,41.03667,28.98136
"Apt for rent in Istanbul, Turkey",41.03841,28.98299
new apartment near taksim square,41.03607,28.99061
renovated flat in pera center,41.03664,28.97546
RUBY 2BR PERA BEYOGLU GOLDEN HORN,41.02986,28.97051
"SAPPHIRE, BEYOGLU PERA, GOLDEN HORN",41.0279,28.97238
Ev rahat ve lükstür. Ev rahat ve lü,41.09289,28.90846
"GOLD,BEYOGLU-PERA,GOLDEN HORN VIEW!",41.03417,28.97703
The Memo's Place,41.00124,29.14058
Rumeli Hisarüstü Bogazici Universty,41.08943,29.04958
Flat with Amazing Views at the Central Istanbul,41.02981,28.98622
inin BEBEK  -B1,41.08183,29.04372
inin BEBEK  -B2,41.08184,29.04478
Boğaz manzaralı evde 2 kişilik oda,41.08826,29.05648
Historical Turkish Accommodation,41.03605,29.02923
"Style, character, frescoes, terrace views, Galata!",41.0271,28.97326
"VERY close to Kadıköy, very cheap!!",40.98622,29.07076
2+1 Rooms 120$ daily,41.03812,28.98203
Room in the Center of Taksim,41.03505,28.98586
Serviced & Furnished Apartment in Taksim İstanbul,41.04572,28.98486
Budget Flat in the Center of Istanbul,41.04513,28.98395
weekly/monthly rental room in sisli,41.06566,28.97405
"DIAMOND, BEYOGLU-PERA, GOLDEN HORN",41.02826,28.97195
"Girls Only Affordable, Expat&Erasmus&Traveller",41.05108,28.98714
Galata & Fresh Renovated & 2 BR  & Private Garden,41.02853,28.9777
1+1 flat in the heart of Istanbul,41.04855,29.00416
family home in the most trendy area,41.05084,28.99805
Sultanahmet - Central 2 BR Apt Grfl,41.00367,28.97589
Galata & 3BR & Industrial Design,41.02779,28.97619
"Sultanahmet-2 BR Apt,75 Sqm, 1st FL",41.00245,28.9759
"Sultanahmet-1 BR Apt,45 Sqm, 2nd FL",41.00358,28.97661
CHARMING OTTOMAN HOUSE in ISTANBUL,41.0431,29.04741
"Sultanahmet-Large Studio Apt,30 Sqm",41.00211,28.97675
Sultanahmet-Studio Apt w/ Balcony A,41.0028,28.97683
Sultanahmet-Studio Apt w/ Balcony B,41.00412,28.97715
"Great room,Perfect Flat in Taksim",41.04746,28.98689
LONG TERM On a bay outside Istanbul Anadolu Feneri,41.21704,29.15285
The Bosphorus Apartment ,41.02816,29.01679
Cosy flat with terrace @ the center,41.03331,28.9871
Cozy Room ANGORA _Double @ Kaboom Guest House,41.03507,28.97289
"Central location, bright large room",41.01152,29.06907
Female Only Aff'ble W/Att'ed Private Balcony,41.05084,28.98629
Macka Armani Residence,41.04697,28.99886
Nice Cosy Room In  Centrum Taksim,41.03323,28.9867
Nice Cosy Room In Taksim ,41.03376,28.98648
Close to Metro Station & Bosphorus!,41.07209,29.02458
"STYLİSH , MODERN FLAT, NİŞANTAŞI",41.08291,28.99536
Entire home/apt in Istanbul,40.95853,28.82444
Taksim Terrace,41.03324,28.9721
Taksim Square Flat -Great Location!,41.03466,28.98617
HISTORICAL FLAT& BEST PRICE @TAKSİM,41.03621,28.97539
Designer's Historical Apartment,41.03406,28.97994
Elegant flat on gorgeous grounds,41.0841,29.02115
Comfy Flat 400mt to Taksim Square,41.03927,28.9823
Best Point Suite,41.00523,28.98182
half the ground flat (Apartment_1),41.03032,28.97264
Marvelous room in an Artist's home staycation,41.03291,28.98662
Beautifully furnished studio apart,40.99001,29.03099
"Taksim - Stay economic, travel more",41.03662,28.98147
Apartment in the Heart of the City8,41.03915,28.98272
Room in a Fully-Furnished Big House,40.98052,28.88244
LA CASA DI LINO a Beyoglu Istanbul,41.02813,28.98053
LA CASA DI GIOIA a Beyoglu Istanbul,41.02987,28.98076
Green House Hostel-Tal-atHouse,41.04242,28.98582
Cozy apartment in Istanbul center!,41.04563,28.986
 Private New Studio 2  in Beyoğlu ,41.03728,28.97531
"Temiz,Ucuz ve merkezi bölgede oda",40.9995,28.83562
Beyoğlunda Şirin Kullanışlı Stüdyo4,41.03754,28.97624
Beyoğlunda Şirin Kullanışlı Stüdyo5,41.03715,28.97532
Beyoğlunda Şirin Kullanışlı Stüdyo6,41.03618,28.97554
Beyoğlunda Şirin Kullanışlı Stüdyo7,41.03767,28.97555
Beyoğlunda Şirin Kullanışlı Stüdyo8,41.03731,28.97472
Cosy room in Beyoglu 2,41.03685,28.97702
Charming Delightful Room@Centre 2,41.02825,28.97758
"Central Flat with Bosphorus view,",41.0228,29.0195
LUXURY 1+1 APARTMENT IN ISTANBUL,41.04511,29.00077
HISTORIC STUDIO with BOSPHORUS VIEW,41.06121,29.0347
Beyoğlunda Şirin Kullanışlı Stüdyo3,41.03526,28.97596
Magnificent house in the center of ,41.04718,29.02292
Cosy House-Double Storey in Istanbul,41.02082,29.02424
Cozy apartment in Cihangir,41.03086,28.98519
Cozy room in Beşiktaş Serencebey,41.0458,29.01141
taksim doublex flat,41.03676,28.98092
Nice&Confortable Rooms In Center ,41.05259,28.98226
taksim modern flat,41.04013,28.9821
taxim super modern flat,41.03834,28.98208
taxim doublex flat,41.07548,28.88201
Great Flat in Mecidiyekoy,41.07569,28.99596
2 minutes to Taksim Square For 4 People& Breakfast,41.03752,28.98244
Istanbul is a God's heaven on earth,41.02398,28.941
Taksim new cozy flat up to4,41.00565,28.97733
Large art loft with bosphorus view!,41.03405,28.98528
"Center of the city,Comfortable room",41.04703,28.98079
Beyoğlunda Şirin Kullanışlı Stüdyo2,41.03746,28.97483
Üsküdar merkezde BAYAN ev arkadaşı,41.01959,29.0154
"VERY NICE, BIG ROOM..WITH BALCONY",41.05774,28.98708
4room Big apt at city center near Sea,41.05059,29.02059
Female Only Aff'ble Spacious @Centre w AC,41.0497,28.98641
The Pashas House Istanbul VIP 6 B.R,41.00447,28.96863
Romantic Authenticity in Old Town Istanbul 1.Floor,41.00417,28.9683
Overlooking the Bosphorus,41.04324,29.04549
Private Sea Room - Estanbul House,41.00859,29.01247
"Cute Duplex 1+1 / Heart of City, Taksim/Beyoglu",41.03879,28.98047
Luxury-Comfortable-Private Room ,41.03752,28.97735
Central Deluxe Double Room,41.06243,28.98457
Central Single Room ,41.06297,28.98497
İstanbulun merkezi,41.06475,29.01071
ART OF LIVING IN CITY CENTRE,41.03245,28.98081
"Nişantaşı apartment, very central!",41.05119,28.9892
Interior Room★LGBT+ Friendly★1 Metro Stop 2 Taksim,41.04849,28.98413
Luxury Apartment in Instambul,41.03652,28.98247
Easy and Peaceful Stay/Besiktas,41.04479,29.00827
"The White Swan Suites Beyoglu-Taksim
İstanbul",41.03838,28.97943
Spatious place in trendy Cihangir,41.031,28.98826
GALATA TOWER AREA ANTİQUE FLAT,41.02695,28.97699
Romantic Authenticity in Old Town Istanbul 2 Floor,41.00533,28.96834
Luxury Family Apartment in the Heart of Old Town,41.00597,28.96804
Studio Apartment w. Roof Windows in Galata (A21),41.02694,28.97643
room for rent in middle of İstanbul,41.06224,28.97671
sea wiev furnished room in kadikoy,40.99567,29.02709
Retro Design - Raven Suite 1+1 Taksim Old City,41.03677,28.98033
Beautiful and cozy apartment,41.03725,28.98246
BEŞİKTAŞ / İSTANBUL,41.05661,29.00722
Central Deluxe Double Room ,41.04427,29.0004
"LOVELY ROOM, CENTRAL&SAFE LOCATION",41.04368,28.99706
for long term\Beyoğlu,41.0348,28.97402
Nicy studio apartment in Cihangir,41.03154,28.98156
Simple is good/Heart of Taksim,41.03374,28.98748
One Bedroom Studio near Bosphoros,41.11793,29.06602
Rooftop Terrace  Ortakoy,41.05,29.02858
Private cozy room in Uskudar (Bosphorus),41.02513,29.02104
Fully furnished 2 BR Flat in Taksim,41.03696,28.98226
Comfy stay in Sultanahmet area!,41.00566,28.97121
"SULTAN SUITS GOLDEN HORN 3, NEW",41.00649,28.83071
historical flat@istanbul center,41.03783,28.97454
Home mate,41.04368,29.01035
Cosy double  room in Beyoglu 3,41.03685,28.97702
"SULTAN SUITS GOLDEN HORN 2,NEW",41.00638,28.82992
Summer in Istanbul,41.02894,28.97393
Art House - Seafront @ Moda-Kadikoy,40.98387,29.02138
@Cihangir; Deluxe Double Room,41.03131,28.97973
Cosy Flat with Balcony & Mezzanine,41.0361,28.97783
Kiralık Oda,40.96828,29.059
apartbox,41.03196,28.98187
Cozy  room in Galata,41.02466,28.97655
Cozy bedroom in Istanbul-Bahcesehir,41.07152,28.68129
Cihangir'de Boğaz Manzaralı Şık Daire,41.03162,28.98742
A cosy living room in Ortaköy...,41.0505,29.02612
perfect location for females,41.00961,29.0434
Great Room - Bosphorus View,41.03027,28.98754
Room with Courtyard 400mt to Istiklal Av & Taksim,41.03919,28.98296
Best Room for 2: Central & Clean,41.03446,28.989
Colorful room Beşiktaş Serencebey,41.04397,29.0113
Tal-Athouse,41.04234,28.98637
Urban-cool apartment in the very heart of Cihangir,41.03097,28.9833
Central location apt @nisantasi @ahmetfetgari st,41.04646,29.00007
STYLISH FLAT IN THE CITY CENTER !,41.05145,28.99668
Charming studio near Galatasaray ,41.03062,28.97936
spacious room in central&cozy neighborhood,40.98398,29.02508
Perfectly Located on Bağdat Avenue,40.95873,29.08768
Retro Design - Raven Suite 1+1 Taksim Istanbul,41.03578,28.98046
"Cosy home by river,close to Taksim-Karaköy-Bomonti",41.06617,28.96138
Istanbul Property Management - Taksim 86 Duplex,41.04306,28.98331
"Welcome Girls only,near Tram & Metro اتفضلوايابنات",41.01247,28.94543
Cosy Apt. in Tesvikiye,41.04518,29.00167
Great view of  Istanbul,41.03307,28.98833
Budget Rooms Near Taksim Square,41.03877,28.98374
A cosy room in the center of Besiktas Carsi,41.04581,29.00133
Flat With Garden in Central Neighborhood,41.04939,28.99977
1+1 FAMILY APARTMENT IN ISTANBUL,41.04529,29.00081
2 min from Galata Tower w/ a View,41.02745,28.97305
"MARIE | Central, 2-Bed w/ Terraces in Old Town!",41.00882,28.97501
Taksim suite 3,41.03922,28.98345
EURO 600Beautiful ROOM in NİSANTASI,41.05296,28.99582
"Cute Attic room Beyoğlu, Istanbul",41.03685,28.97702
"Far from Madding Crowd, yet central",41.03505,29.02972
TUYAP SIDE LUXURY APARTMENT FULLY F,41.03585,28.60367
Modern Bir Dairede Mükemmel Vip Özel Bir Oda,41.01847,28.64854
Warm Room in Beyoğlu Taksim,41.03714,28.97318
may be THE BEST CHOICE in town!,41.05666,28.98462
Artistic flat in Taksim,41.04319,28.98341
BESİKTAS ISTANBUL,41.04393,29.00343
Mixed Room For 3 Person,41.06235,28.98645
Nice cozy flat in Taksim,41.037,28.97525
"Private room near Levent, Istanbul",41.0547,28.98592
APARTMENT JASMİN ,41.0627,28.96666
Cosy flat in the centre of Kadıkoy,40.99406,29.0299
SUPERHOST-LARGE&CLEAN-Near Pierloti,41.06038,28.91629
İSTANBUL-HARBİYE,41.04247,28.98268
renovated 19th cent heritage flat,41.03699,28.97487
"Spacious, Light, Rooftop Views",41.05989,28.99372
Cozzy flat at the heart of the city.,41.03066,28.98379
"Flat:No:6, Marvelous Apartment /Taksim, Beyoglu",41.03823,28.98159
Design Room In Great Area,41.03705,28.97477
5 mins to Istanbul Ataturk Airport,41.00609,28.97811
"Central, Chic & Modern Apartment",41.0482,28.9814
Charming Flat at Moda- Asian Side,40.98041,29.02226
2 minutes to Taksim Square & Breakfast,41.03741,28.98237
CENTER OF NİŞANTAŞI 2+1 FLATS ,41.05634,28.99178
Wunderschöner Bosporus Ausblick !!!,41.02439,29.01055
Comfortable dublex good view,40.91345,29.15177
Central Flat in Istanbul,41.04654,28.98645
Charming flat in Galata,41.02717,28.97723
Cozy Family Apartment in Galata,41.02785,28.97486
Taksim/Pera Flat With Beautiful View 2,41.0291,28.97209
House at the center of istanbul,41.0628,28.99343
Room in the heart of Old City,41.05196,28.92605
Cosy 1BD Flat in Istanbul,41.08671,28.9278
Cozy Flat Taksim / Cihangir,41.02963,28.98584
A nice room in a 3 rooms apartment with view,41.04436,29.01285
Charming Delightful Room@Centre 3,41.04863,28.98709
"Private Room in Kadikoy, Istanbul",40.98772,29.04515
Taksim/Pera Flat With Beautiful View 1,41.029,28.97314
Luxury residence @Istanbul Atasehir,40.9925,29.10575
Beşiktaş Lovely and Elegance Room,41.00121,28.85387
Your IstanbulPass-CentralCozyClean,41.03437,28.9875
Get comfortable in the center,41.03217,28.985
sunny 2 bedroom close to Bosphorus,41.06944,29.04246
Private room in Istanbul,41.07605,28.66673
 Historic Aprtnt W Golden Horn View,41.03455,28.97287
Welcome To Stay Your House Istanbul,41.00468,28.98231
"Room in large Sea View Apt, Taksim",41.02803,28.98204
double room in cousy/vintage house,41.07004,28.99415
Honey House Apartment Istanbul,41.009,28.97551
Cosy Room in Kadıköy Very Close to Ferry/Metro/Bus,40.98794,29.02292
Classic Istanbul warm safe stay,41.01765,29.01889
2 Bedroom in Taksim/Istanbul,41.0344,28.97245
4. LEVENT OFİS KATI,41.08568,29.01096
Spacious Flat in heart of Cihangir,41.03124,28.98557
Studyo im Herzen von Beyoglu!,41.03003,28.97828
istanbulun merkezi olan beyoğlu ,41.03796,28.98131
Private Room with Private Bathroom,41.01058,29.05179
Room for Rent,40.98665,29.0224
★Private Terrace in Oldcity★,41.01745,28.9554
Staylish Cosy Flat Central Location,41.03313,28.98695
Standard Room,41.05034,29.02098
Very closed to Kadikoy and Caddebostan,40.97134,29.08231
Amazing view,40.98284,28.89187
Standard Quadruple Room,41.05244,29.02155
Flat for rent long term/short term,41.05139,28.98143
"Location, light and panorama",41.02895,28.97573
Affordable Flat in Taksim Cihangir!,41.03024,28.98243
Standard House 2 Bedrooms,41.05238,29.02305
Aparment for rent to foreign people,41.02992,28.98306
Sultanahmet - Deluxe 4 BR Villa,41.00417,28.96604
Greystone Apartment 2,41.03661,28.97665
Open-minded and friendly,41.01114,28.93272
Top floor Apt in Cihangir w Terrace w Sauna,41.0321,28.98223
"Lovely room in Yeldegirmeni, Kadikoy, Istanbul",40.99559,29.0276
Brand new flat 8 mins walk to metro,41.07612,29.00548
İstanbul Hub -Standard Double (Apt 5),41.03913,28.98181
İstanbul Hub - Standard Double (apt6),41.03917,28.98187
İstanbul Hub - Superior Duplex (Apt 7),41.03903,28.98169
İstanbul Hub - Superior Duplex (Apt 8),41.03902,28.98171
İstanbul Hub - Standard Double (Apt3),41.03903,28.98169
İstanbul Hub - Standard Double (apt4),41.03902,28.98169
historical&comfy flat@city center,41.03724,28.97527
"Beylikduzu, Near Tuyap Fair",41.00848,28.62967
"Taksim, Beyoğlu, İstanbul",41.04181,28.98426
2min walk to Blue  Mosque/blue room,41.00552,28.97719
Marmara Sea View Textile Haven,40.99899,28.93186
POST-MODERN FACE OF İSTANBUL,41.03907,28.98228
POST-MODERN FACE OF İSTANBUL,41.0374,28.9824
RENTAL ROOM TO ITALIAN EXPAT,41.08919,29.02916
"Wonderful view of Istanbul,",41.02872,28.95223
"In Beyoglu, near taksim Square",41.03554,28.97609
İstanbulda bahçeye bakan bir oda,41.08519,29.03468
Quiet nice room in İstiklal Taksim,41.03601,28.97448
Historical Cozy and Large flat,41.03394,28.97729
Apartment With One Living Room And One Bedroom,40.92364,29.28204
Villa close to beaches of Istanbul,41.23351,29.00744
Room in a historical Greek house.,41.04495,28.97914
Center & quited luxury house in Istanbul,41.06055,29.02268
Comfortable room in a lovely neighborhood,40.94204,29.11292
"Safety&Central  Location,Nice Room",41.0744,28.99697
Dream Flat in Galata,41.02722,28.97679
"Room in İstanbul, Mecidiyeköy",41.06511,28.99605
LUXURY FLAT WİTH 3+1 ROOMS KADIKÖY,40.99146,29.03247
Private Room with Two Cozy Sofas,41.04515,28.98648
Private room in Istanbul / Cihangir,41.03135,28.98721
istanbul,41.05671,29.01134
Cozy Private BR Right at the Center,41.05013,28.96134
@Moda @Bahariye ,40.98734,29.03048
istanbul acarkent,41.11567,29.12861
Retro design - high ceilings ,41.02731,28.9768
panaroma:center:elite street.,41.03107,28.98044
❤️ 2BR★DELUXE★COZY★DESIGNER★GALATA TOWER!,41.02693,28.97475
Bavulu aç yaşamaya başla,40.99528,29.10678
❤️ 3BR★PRIVATE TERRACE★SEA VIEW★2 min to Metro!,41.027,28.97448
"Cosy,nice flat for long term",40.97898,29.05048
Beyoğlunda Şirin Kullanışlı Stüdyo9,41.0361,28.9769
İstanbul'un kalbinde lüx oda,41.03569,28.98179
ataşehir optimum outlet e5 yakını,41.00013,29.04349
Comfy 2-br apt. near Taksim,41.04694,28.98465
In the city center of Kadıöy,40.98526,29.04242
LUXURY COSY STUDİO FLAT WİTH BALCON,40.99498,29.03373
İstanbul - Taksim,41.04312,28.98263
i have a room available for rent,40.99648,29.04641
NICE CONTEMPORARY APT.,41.03266,28.98659
Enjoy new Istanbul in Bomonti,41.0569,28.98427
Bomonti:You feel save&can reach everywhere on food,41.05677,28.98451
Comfort and style in city center ,41.03153,28.98075
"Airy style, amazing terrace views in Galata!",41.0263,28.975
Sunny Central Room -Macka,41.04363,28.99809
Kadikoy bagdat caddesi uzerinde...,40.98356,29.04118
taksim suite ll istanbuldaki eviniz,41.03705,28.98353
UNIQUELY DECORATED HOMEY HOTEL ,41.00526,28.98212
Your Home in Asian Side,41.00972,29.01577
A fabulous location in İstanbul Nişantaşı,41.05077,28.99629
Like your home in Istanbul ,41.0723,28.99985
A COZY FLAT WITH COMMON TERRACE,41.02944,28.98113
 Aquacity 2010 1+1 kiralık eşyalı,41.0026,29.1939
Luxury Flat Near Civahir mall & taksim (NEW !) 1+1,41.06498,29.00318
Cozy Room with Sea View Terrace in Balat,41.02827,28.95205
Very close to Bagdat Avenue,40.96685,29.09105
Kadıköy merkezde kadın misafirlere kiralık oda...,40.98884,29.02415
Stylish Flat with Unique Furniture,41.05105,28.98201
Clean and cosy bedroom,41.02143,29.01822
Cozy apartment in Cihangir,41.03343,28.98645
Flat near Taksim Square (9),41.03948,28.98233
One Bedroom Apartment in Galata (A5),41.02522,28.97667
Taksime 10 dk mesafede konumu değiştiremedim,41.0426,28.98567
New clean near Old city!Sultanahmet,41.03218,28.94827
Fresh room in Bostanci,40.96899,29.11824
you deserve the best,41.05898,29.00187
Lovely & Comfy Studio Apartment !,41.04674,28.98396
Accomodation for Every Budget!,41.0458,28.98484
Cheerful & Lovely 2Room Apartment,41.04659,28.98374
Serviced Furnished Apartment,41.0448,28.98367
Cosy & Charming Stylish Apartment,41.04693,28.98459
Living in the Heart of İstanbul!,41.04611,28.98404
"No TV, but projectors and movies.",40.96389,29.11244
Taksim suite 1,41.03701,28.9843
Taksim Green House Hostel istanbul Family Room,41.04333,28.98442
Great Room in Old City  ( ISTANBUL),41.00619,28.92471
 Green House Apart Hostel,41.04222,28.98581
Secret Garden in Cihangir for you,41.03275,28.98592
Lovely Room in a Traditional House,41.02163,29.01192
Welcome LadyCENTRAL SAFETY Local ;),41.0661,29.01107
A cozy room in princes' islands ,40.8781,29.09748
Cihangir is the most popular area,41.03282,28.98364
Sultanahmet Gardens: Family Suite,41.00318,28.97652
Penthouse Studio Style Living,41.04575,28.98479
kayıt iptal silmeyi bulamıyorum bu ney lannn,40.94977,29.10308
Best sea view in Kuzguncuk,41.03515,29.0323
Relaxing Terrace Floor in Taksim,41.02888,28.97683
Private room with AC in shared flat,41.02842,28.97564
,41.02855,28.98614
Discover the old district of Balat/Istanbul,41.02884,28.94951
"YOUR HOME INTURKEY
MODERN AUTHENTIC",40.982,29.22774
Beyoglu Pera,41.03635,28.97806
Quiet&peaceful house in the centre,41.04364,28.99892
"Boho-chic house, 1m to seawall",41.06949,29.04326
Garden Floor Studyo,41.02464,28.97433
private room near taksim,41.06447,28.97329
LUX. COSY FLAT WİTH 2  BEDS,40.99505,29.03393
LUXURY MID. STUDİO FLAT,40.99462,29.03278
LÜX  COSY STÜDYO DAİRE,40.9954,29.03402
Motorhome hire in the TURKEY-,41.03645,28.98547
Cozy Home near Taksim,41.05113,28.98563
Bosphorus View in Historic Building,41.02958,28.9765
Dualis Hotel,41.00344,28.96959
Taksim istanbul Green House Hostel Tal-athouse mix,41.04172,28.98638
Boğaz Manzaralı Daire İstanbul,41.02948,29.027
One bdrm flat in heart of Istanbul,41.03198,28.98608
TAKSIM APARTMENT,41.04232,28.98347
Peace in the city center,40.98026,29.02428
Old City's  Room (Private Bathroom),41.03217,28.94812
1+1 Cozy Flat in  Oldcity,41.03217,28.94809
Magnificent Sea view near OLDCİTY!!,41.0322,28.94809
Pvt Room/Bath Centrally Located :),41.07158,29.01475
COMFORTABLE APARTMENT IN TAKSIM,41.03464,28.97444
Taksim Square ,41.04001,28.98264
appartement a 300m de istiklal,41.03829,28.9766
private room at TAKSIM center  NO CLEANING FEE,41.04002,28.98186
Taksim Beyoglu Cihangir Retro Flat,41.03204,28.98369
Close to Atatürk Airport,41.0376,28.77818
"Kapalı otoparklı, havuzlu, 7/24 güvenlikli daire",40.99176,28.65096
Exclusive Penthouse.TopView.Central,41.03272,28.98871
Room for rent Pangaltı-Kurtuluş-İst,41.05061,28.98152
Welcome to the heart of İstanbul!,41.05325,28.99364
ISTANBUL IN ISTINYE MASLAK AREA,41.12854,29.03013
BOSPHORUS VIEW IN A GREAT APARTMENT,41.07135,29.0435
Taksim Center Rental Flats 3 bedroom,41.03408,28.9855
Duplex Apartment In The Heart of Old Istanbul/D.R.,41.01545,28.9393
SUPERHOST- Wifi- METRO-5 GB simcard for outside,41.05908,28.91804
Historic Spacious 3BR Apart Galata,41.02597,28.97616
Studio Suite in Taksim,41.03909,28.98202
Private Room in City Center - Brown,41.03125,28.98376
Family Apartment near CentreOLDCİTY,41.03216,28.94814
Superior Suite in Sultanahmet #1,41.00325,28.9793
Cozy and central flat,41.04395,29.00018
Cihangir -  Bohemian quarter sublet,41.03222,28.98644
Aiza Suites  eviniz rahatlığı....,41.05481,28.98901
Single Private room(shared shower-w,41.01462,28.97814
Sunny Double Rooms @ Kadikoy Centre,40.98508,29.02159
★4 Bedroom★3Bath★Exceptional Flat★,41.03082,28.97439
Luxury Suite in Sultanahmet #2,41.00329,28.98133
Luxury Suite in Sultanahmet #3,41.00446,28.97931
BEATIFUL FLAT & BEST LOCATION @TAKSİM,41.03516,28.98209
Close to the Sabiha Gokcen Airport,40.856,29.29802
Duplex Suite in Taksim (2 Terraces),41.03801,28.98226
#1  HYGIENIC 2! BATHROOMS FLAT FOR 1 TO 5 PERSON,41.0039,28.97091
Basement Suite in Sultanahmet #5,41.00473,28.98151
Large Family House Near Blue Mosque,41.00699,28.97036
LUXURY SEA VIEW APT WITH BALCONY,41.02941,28.98649
COZY FLAT IN ISTANBUL TAKSIM VİEW,41.04223,28.98632
Room in Kadikoy centre,40.99553,29.0302
Modern decoration in Taksim,41.04278,28.98459
Modern decoration in Taksim 2,41.04246,28.98481
Quiet Cozy Flat at Center Besiktas,41.04451,29.00285
Detached House with Secluded Yard,40.99412,29.07828
"Room:23: Clean, Cheap, Peacefull and Central",41.0629,28.99461
rahat ve konforlu bır ev arıyorsanı,41.02188,28.84235
"Nice,quiet room in Cihangir,Taksim",41.02879,28.98119
The center of Taksim!!,41.03269,28.98363
Studio Suite in Taksim,41.03731,28.98274
Private Room in City Center - White,41.03165,28.98508
Sultan's Nest,41.05516,28.98569
Renovated Central Istanbul Flat,41.04642,29.01133
"In the heart of Taksim, Luxury Room",41.0348,28.98103
Cody Flat - Perfect Location,41.04871,28.98129
Istanbul Property Management - Taksim 87 Duplex,41.04339,28.98295
Near the new Istanbul airport and see side.,40.96165,28.83403
Sehir merkez taksim yuruyerek10dk,41.0525,28.98262
"nice location, cute room",41.06883,28.99679
Amazing Historical House in the Heart of Galata,41.0276,28.97339
Cosy and Quiet  Apartment in Taksim,41.04566,28.98472
ROOM FOR RENTAL IN CIHANGIR/BEYOGLU,41.0293,28.98004
Cozy and central flat in Istanbul,41.04909,29.00648
Private room in the city center,41.03568,28.97464
"Lovely,Cheap Flat-Balat (wholeflat)",41.03394,28.94539
Great Room In Perfect Location,41.03816,28.97535
 Maksem SuitesAparts İstanbul,41.03732,28.98258
Stylish Room in The Center of City,41.05356,29.00782
"Quiet + cosy, right in the centre !",41.02974,28.98024
Stüdio Apr.2  with garden + kitchen,40.92881,29.14063
A Studio Apr. with garden + Kithen,40.92731,29.14164
Real Istanbul Living,41.05067,28.98574
Comfort .Great locatıon. 2 BD with balcony.,41.03485,28.98763
Cozy Room in Beyoglu İstanbul,41.03531,28.97532
Bosphorus View. Private terrace. 2 BD.,41.03308,28.98743
SWEET COMFORTABLE HOME IN THE HEART OF ISTANBUL!,41.03768,28.98298
3 odali deniz manzarali muhtesem ,41.16775,29.02944
private rooms ortaköy,41.05406,29.02143
City Apartment in Residential Area,41.0711,29.02367
8 min walk to taksim. Safety area! ,41.044,28.98536
Dream | Green Forest Concept (Terrace Suite),41.03758,28.97485
Sunshine | Purple Garden Concept (Terrace Suite),41.03555,28.97318
Sea View terrace Duplex,41.03396,28.97387
Sunshine | Red Life Concept (Suite),41.03555,28.97318
Sunshine | Orange Sunset Concept (Terrace Suite),41.03556,28.97317
Sunshine | Green Modern Concept (Terrace Suite),41.03555,28.97319
Paradise | Blue Butterfly Concept (2Bedrm+1Lvngrm),41.03595,28.97281
Dream | Blue Night Concept (Suite),41.03758,28.97485
Dream | Purple Tale Concept (Suite),41.03758,28.97485
Paradise | Pink Bird Concept (2Bedrm+1Lvngrm),41.03595,28.97281
Large Room with a Large Garden,41.0864,29.05423
Cosy Flat With Bosphorus View,41.03256,28.98643
Pera | Deep Maze Concept (Second Basement),41.03721,28.97439
Exclusive room in secured site,41.01783,28.6484
COMFORTABLE DOUBLE ROOM,41.03627,28.98079
SMALL COSY ROOM IN KADIKÖY,41.01349,29.03691
Cozy Double Room Flat in Taksim 2,41.03674,28.97523
the heart of Istanbul ,41.08425,29.06901
Luxury flat with garden in Cihangir,41.03005,28.98401
Special room in Sancaktepe,41.02888,29.24287
Comfortable and Clean Apartment in the City Center,41.0487,28.98352
Full furnished Cosy Flat in Taksim,41.03721,28.9829
Party House / Daily Rental,41.04499,29.05566
Newly-renovated apartment-studio,41.02991,28.94779
Private Room in a Flat with View,41.04564,29.00326
Perfect Location.Prince İsland View,40.94739,29.10757
real lovely cozy greek beyoğlu apt ,41.03307,28.97453
Taksim beyoğlu istanbul 6bed Female,41.04208,28.98326
One İstanbul Suadiye 2+1 (70m2),40.95854,29.08073
rent apartments istanbul,41.02916,28.97419
High ceiling flat 1+1 in Galata,41.02705,28.97634
Best view designer cihangir flat,41.03562,28.98398
BEST PRICE & GREAT LOCATION @TAKSİM,41.03747,28.97599
***Fully furnished beatiful room!!,41.06455,29.00425
cozy flat in the center of taksim,41.03333,28.97899
Apartment for rent in Kadıkoy/Ist,40.99485,29.03082
Brand new building with a view,40.98847,29.1136
Stylish&Cozy apartment in Beyoglu,41.03098,28.97449
Ghettoroom,41.03376,29.05446
Hallo freund,40.99081,29.04286
FUAREV LUX FLAT NEAR AIRPORT 84M2,41.03554,28.77022
Beyoglu Suit with Double Terraces,41.04065,28.98107
Suen Apart,41.03038,28.97933
One-Bedroom Apartment with Sofa Bed,41.01232,28.98301
Şişli Osmanbey apart daire 2+1,41.0517,28.98778
Sultanahmet Sunny Apartment with sea view,41.00638,28.97162
Apartment ( 2 adults ),41.00407,28.97901
Cozy Studio in Taksim,41.03563,28.97476
Central Amazing Bosphorus view!,41.03363,28.99135
Apartment - Near Sultanahmed 80 sqm,41.00401,28.96181
Warm family home,41.12168,29.03355
Tastefully Designed Historical Top Floor w Seaview,40.99513,29.02452
FLATS FOR RENT İN TAKSİM SQUARE(5),41.03808,28.98154
Penthouse Suite with a Magnicifant Bosphorus View,41.02706,28.98102
Economical & well located apartment,41.01381,28.93471
Lovely apartment with easy access,40.99559,29.02534
Home sweet home :),41.01254,29.05694
Cosy house at the city center,41.03355,28.98725
elegant flat in central Istanbul,41.05076,28.99722
"Woohooo sweet, colored, cosy room!",41.04731,28.99951
Nice Flat İn Cihangir,41.0293,28.98113
Beautiful House Top Floor Central Sisli,41.06301,28.98875
Luxury Suite Appartement in Galata!,41.02775,28.97433
Sweet Flat,41.0892,28.98092
,41.08341,29.03731
1BEDR 1BATH 8 minute walk historical area 4 adult,41.00567,28.97172
1+1 Economic historical area 2 adult Garden floor,41.00512,28.97136
room at akaretler - besiktas,41.04194,29.00049
Room for rent in Mecidiyekoy,41.07183,28.99964
FLATS FOR RENT İN TAKSİM SQUARE(4),41.03826,28.9847
FLATS FOR RENT İN TAKSİM SQUARE(3),41.03772,28.98614
FLATS FOR RENT İN TAKSİM SQUARE(2),41.03763,28.98632
FLATS FOR RENT İN TAKSİM SQUARE(7),41.03878,28.98357
Bosphorus and Maiden's tower,41.02391,29.00821
Cozy Double Room Flat in Taksim,41.03577,28.97401
Bright Spacious 2 Bedroom Apartment,41.04629,29.00134
inci's house,41.06046,28.99413
A newly decorated central house ,41.06256,28.99687
Fancy flat in the center,41.06334,28.99893
"cozy city scape, Istanbul.",41.04375,28.99822
"A Nice,Friendly Room in Besiktaş",41.05589,29.00413
Nisantasi - Central located flat/ Tesvikiye,41.04956,28.99852
Loft with beautiful views,41.03868,28.97564
Brand new suite with new furniture,41.01052,28.81288
,40.96709,29.07212
Cosy 1+1 Studio Apartment in Taksim (Renovated),41.03692,28.98487
TAKSIM/CIHANGIR Funished 1-BED ,41.03407,28.98164
NEVİZADE 'DE YENİLENMİŞ ULTRA LUX 2,41.03553,28.97816
Peaceful&Central Room in Ortakoy,41.05226,29.02734
Home at Boğazkesen Street,41.02915,28.97897
Double Deluxe Suite Sultanahmet,41.00403,28.96954
Triple Deluxe Suite Sultanahmet,41.00405,28.96788
4 Pax Deluxe  Suite Sultanahmet,41.00555,28.96817
NEVİZADE'DE YENİLENMİŞ ULTRA LUX,41.03638,28.97826
İstanbul Taksim Stylish 2 Bedroom,41.03714,28.98409
NEVİZADE'DE YENİLENMİŞ ULTRA LUX 3,41.03525,28.97791
NEVİZADE'DE YENİLENMİŞ ULTRA LUX 4,41.03684,28.97859
NEVİZADE'DE YENİLENMİŞ ULTRA LUX 5,41.0369,28.98015
NEVİZADE'DE YENİLENMİŞ ULTRA LUX 6,41.03651,28.97811
NEVİZADE'DE YENİLENMİŞ ULTRA LUX 7,41.03697,28.97808
NEVİZADE'DE YENİLENMİŞ ULTRA LUX 8,41.03542,28.97976
Peaceful Private Room in Galata,41.02855,28.97553
Large Room&Central in Kadikoy,40.98803,29.03198
Historical Room in Maison@Cihangir,41.03119,28.98612
Fresh Air in the Forest,41.06126,29.16853
cozy flat in the center of taksim/2,41.03137,28.97822
New Moon Flats For Rent,41.004,28.97238
X Flats - One Bedroom Apartment,41.02815,28.97282
X Flats - Two Bedroom Apartment,41.02827,28.97373
Galata and Bosphorus View Luxurious,41.02442,28.97393
SISLI RESIDENCE AVENUE#9,41.06065,28.98529
istanbul Taksim Green House Hostel and Apart,41.04167,28.98642
KADIKÖY MERKEZ,40.99619,29.02983
SISLI RESIDENCE COURTYARD #10,41.06153,28.98459
"Luxury renovated, Proper Flat- Beyoglu 1",41.02681,28.97879
One time apt,41.05141,28.91751
2+1 luxury apart in Taksim,41.0353,28.98611
In the centre with Bosphorus view!,41.03547,28.9916
Airy apt. in Cihangir with a view,41.03134,28.9811
Flat in a renovated historical building  at Galata,41.02553,28.97482
COMPLIMENTARY WINE & CHILD FRIENDLY,41.05703,28.98695
"Cozy Flat, Beautiful Area",40.98371,29.02385
Nisantasi City,41.05074,28.99195
3+1 BIZIMKENT EMLAK BANKASI EVİ,41.0104,28.64165
Fantastic apartment in Taksim with amazing view,41.03485,28.98912
Modern Cozy Flat Harbiye / Taksim,41.0454,28.9843
Studio Flat at Taksim Istanbul,41.03641,28.97355
Cozy room in duplex flat in Beşiktaş for dailyrent,41.04704,28.99953
Great Apartment w Bosphorus View,41.0315,28.98837
besiktas private location,41.04586,29.01342
4 Studio Flats in Old City (4),41.0073,28.96541
Room in centrum  Istanbul/Galata ,41.02856,28.97742
Amazing Bosphorus View in Cihangir,41.03241,28.98584
"HİSTORİC , AMAZİNG AND SAFE...",41.02616,29.02271
Cozy room with a view in Taksim,41.03226,28.98098
Welcome to my home in Istanbul!,41.08517,29.00288
CHIC & COMFY  very central  galata tower,41.02436,28.97498
istanbul taksim  beyoğlu,41.03217,28.97165
Lovely Studio in Central Istanbul,41.05111,29.00668
ECONOMIC DOUBLE ROOM,41.03632,28.98157
NICE DOUBLE ROOM IN TAKSIM,41.03677,28.98092
ECONOMIC DOUBLE ROOM IN TAKSIM,41.03684,28.98154
COZY DOUBLE ROOM IN TAKSIM,41.03681,28.98147
Historical Penthouse ,41.03527,28.97604
COMFORTABLE TRIPLE ROOM IN TAKSIM,41.03698,28.98154
"İstiklal Street, heart of the city ! Historical !",41.02762,28.97525
central flat with a great view,41.03165,28.97728
DESIGNED STUDIO WITH AMAZING VIEW,41.0296,28.98491
"Private Bath Room, close to Blue Mosque.",41.00469,28.97012
Bakırköy Rooftop 40 m2 Living Room & Bedroom,40.98701,28.87871
Sea and house,41.00278,28.93906
"Very Close to Kadıkoy,Bostanci",40.95,29.12729
"Home Office ""on"" the famous Baghdad Avenue Kadıköy",40.96881,29.06767
Nevizade de şık daire,41.03442,28.97636
Comfortable Room Near Underground,41.00049,29.07635
Room at Ulus İstanbul,41.06956,29.02735
GALATA AREA AUTHENTİC APART,41.02555,28.97478
İstiklal caddesine yürüyerek 2 dk ,41.03455,28.98024
Istanbul Irini Seaview House,41.00568,28.98063
ISTANBUL/ TAKSIM FLATMATE,41.03434,28.97206
kadın misafire özel oda,41.04831,28.99847
1 bedroom apartment near Taksim,41.05044,28.98036
Samatya Seaside Vintage Hideaway,41.00062,28.93048
Cozy private room with double bed,40.89079,29.22266
ayasofya houses 1 Old city,41.01125,28.97997
coshkun house 3 Old city,41.00887,28.97919
I have 3 rooms! Enjoy your choice!,41.03333,29.15665
ayasofya houses 2 Old city,41.01073,28.9788
ayasofya houses double ,41.01049,28.97836
"Huge terrace,cozy,central,best area",41.03138,28.98239
Brand new Cihangir house with view,41.03057,28.98079
LARGE ROOM IN CENTER OF MODERN CITY,41.06774,28.99423
Nice triple room in taksim,41.03634,28.98144
Fascinating Location near Taksim Sq,41.04639,28.98494
Lovely room in bright garden flat..,40.83077,29.29978
HERE 2 SLEEP !!,41.03964,28.98018
a single room,41.03449,28.98022
NICE APARTMENT IN TAKSIM,41.03609,28.98015
Cute Studio in Cihangir BEYOĞLU,41.0325,28.98255
Galata Charm+ 3 BR +High Ceilings,41.02576,28.97428
Your Luxurious Motorhome in Turkey,41.037,28.98756
Şişli Luxury Apt- new summer price,41.05431,28.98043
Bomonti Lux Apart,41.05565,28.98007
2 minute walk to the Blue Mosque ,41.00507,28.97817
2 minute walk to the Blue Mosque ,41.00478,28.97668
"Great Location, Nişantaşı İstanbul",41.04898,29.00496
Luxe King Studio in the Taksim,41.03718,28.98181
Luxe Apartment  1+1 in Taksim ,41.03718,28.98181
Connected 4 bedroom apartment,41.03719,28.98176
"quite new , clean , istanbul",41.08686,29.00646
Central secure 100m2 residence unit,41.05303,29.00826
Dream | White Bicycle Concept (Tiny Studio),41.03758,28.97485
Luxury King Studio in the Taksim,41.03719,28.98176
Lovely place to be...,41.08998,29.04803
Secret Garden,41.06516,28.95305
5 min walk to Metro-4.levent,41.08723,29.01242
Room with Bosporus View!,41.08516,29.03869
Bomonti Penthouse wt summer terrace,41.05349,28.97904
Doug's Pad (Rooms),41.03217,28.9776
Newly-renovated apartment 2 (bedroom +living room),41.02991,28.94779
Family House in Sultanahmet,41.00543,28.96936
Superlux suites,41.0423,28.98671
EKONOMİK DAİRE (7 KİŞİLİK )   D-1 Semi Basement,41.00549,28.97089
STANDART DAİRE (7 KİŞİLİK )  D-7 Semi Basement,41.00546,28.97085
İKİ YATAK ODALI SÜİT (7 KİŞİLİK )  D-6,41.00549,28.97089
İKİ YATAK ODALI DAİRE(7 KİŞİLİK) D-5 Semi Basement,41.00545,28.97083
Nice flat in home office to rent,40.9834,29.02611
PERA★2BR-2BA★SPACIOUS ★BALCONY,41.02913,28.97557
Luxury  1BR Apt w TERRACE in PERA,41.0315,28.97442
Her Ulaşıma Yakın Minimalist Oda ,40.95825,29.10947
DELUXE DAİRE  ( 5 KİŞİLİK )  D-2,41.00547,28.97102
İKİ YATAK ODALI SÜİT (8 KİŞİLİK )  D-4,41.00545,28.97086
Budget room - Central & Terrace,41.01789,28.95625
Only five minutes walk to Taksim 5,41.04202,28.98449
A real home with a view,41.0415,28.99871
Private Room in Üsküdar,41.02404,29.02759
İKİ YATAK ODALI SÜİT (8 KİŞİLİK )  D-3,41.00545,28.97086
"Restored flat, view on golden horn",41.03478,28.97249
3 Bedroom Apartment - Very Central,41.06336,29.01877
5 minutes to Airport,41.00882,28.81686
Galata Tower Home,41.02664,28.97522
Defne Suites,41.02694,28.97688
Harbiye Residence,41.04901,28.98617
Private Flat in Istanbul,41.00615,28.98103
private room with balcony,40.98757,28.87315
Cozy Flat For Rent in Taksim Area,41.04529,28.98388
your home in istanbul,41.06314,29.00121
Hearth of İst and Bosphorus View,41.03042,28.98509
4 Studio Flats in Old City (2),41.00744,28.967
4 Studio Flats in Old City (3),41.0056,28.96741
Seaside Holiday Modern Comforts,40.97166,29.06472
Double bed Room( private shower-wc),41.01463,28.97961
Comfort Triple Room(,41.01457,28.97797
Tolle wohnung / güvenli yer...,41.02517,28.66153
Quad room (shared shower-wc),41.01364,28.97887
Triple room (shared shower-wc),41.01442,28.97797
4 Studio Flats in Old City (1),41.00763,28.96549
"taksim square for 5 minutes, ",41.03417,28.98796
"Bosphorus view in a private, stylish home",41.03553,28.98894
Taksim  Cihangir Center 1+1 Flat 3rd. floor,41.0325,28.98714
"residence; 24 hr sec, pool fitness, free wifi",41.04306,28.98201
ONE-BEDROOM APARTMENT,41.03452,28.98572
Cosy Flat in the heart of Kadıköy-Istanbul,40.99567,29.0252
1 Bedroom Flat - Great Location,41.06383,29.03675
great room / great location,41.03531,28.98548
Apart Hotel right near the center  ,41.03418,28.98286
Nice room in a big apartment,41.04375,28.99987
Sadaret Apartment,41.00293,28.97806
Swiss suites Studio  12,41.03389,28.98014
Great Apartment in Cihangir/Taksim!,41.02842,28.98224
Quiet place with garden city centre,41.02299,29.01614
FLATS FOR RENT İN TAKSİM SQUARE(1),41.03815,28.98354
Comfortable Apartment Sultanahmet,41.00689,28.96987
Luxurious 3BD,41.03153,28.9856
Taksim Istiklal Str. NEW DBL ROOM,41.03401,28.9798
A funky house full of art in Moda!,40.98058,29.02239
Awesome Seascape in Asian Side,41.02475,29.02847
Taksim Istiklal Single Hotel Room,41.03357,28.98174
Taksim Istiklal DBL- Twin Beds,41.03335,28.98169
Taksim Istiklal TRIPLE ROOM,41.03343,28.98151
BRIGHT DOUBLE ROOM 1 - Sultanahmet,41.00507,28.97027
Flat near Taksim w Bosphorus view,41.04709,29.00755
BRIGHT DOUBLE ROOM 2- Sultanahmet,41.00282,28.9719
Bright Family Apart WithGarden-Sultanahmet,41.00432,28.96988
HISTORICAL LOCATION GREAT ROOM,41.01659,28.9544
calme et confort centre historique ,41.00638,28.96969
"small,cute and ideal location",40.94005,29.13528
Istanbul Apartment w/ Bosporus View,41.05706,29.0281
Room with modern and great views of the Bosph,41.02605,29.06018
Aykanat's Istanbul Pad,41.06483,28.99599
Cosy Room in Galata,41.026,28.97434
"süper manzaralı yazlık ,kışlık 2+1",40.90622,29.05006
Single Room in Beyoğlu/Cihangir,41.03393,28.98005
Spacious flat in the heart of Moda,40.98818,29.02345
cheap place in expensive location ,40.98588,29.02301
"Great Location ★ Whole 2BR Apt ★ Cihangir, Taksim",41.03217,28.98386
New sea view designflat in Cihangir,41.02822,28.98388
İSTANBULUN TAM MERKEZİ YERİ BEBEK,41.07341,29.04159
APT TO RENT IN BESİKTAS / MACKA,41.04411,29.00109
Room For Rent in Kadıkoy,40.98821,29.02679
"GOLDEN HORN VIEW-2BR, PERA-BEYOGLU",41.03213,28.97054
CENTRAL LOCATİON WİTH GARDEN !,41.05498,28.99095
GOOD LOCATION IN ORTAKOY/BESIKTAS - ISTANBUL,41.05205,29.02273
Taksim guest house 2,41.03656,28.98007
Room in center of Kadıköy Coast,40.99461,29.03084
How can you say no to a red fridge?,40.95066,29.10081
Taksim guest house 6 with terrace,41.03641,28.98178
Cozy wooden 4BD house in Beyoglu,41.03749,28.97333
1+1 daire.. 1 + 1 apartments,41.0331,28.94017
Comfy and cozy flat in the center,41.02818,28.98085
Cosy flat in Yeniköy with view...,41.11999,29.05596
a large room in Kadıköy Bahariye,40.98586,29.03042
"good location,terrace,very private silent room",41.00469,28.9776
"Location, Location, Location!",41.03101,28.98685
Awesome Flat near Istanbul Airport,41.00799,28.82304
One bedroom flat near Nisantasi,41.05421,28.98631
Small cottage in a garden in Moda!,40.98161,29.03242
10 minutes to taksim.,41.06,28.99224
"Central Beyoglu, equipped flat",41.03192,28.97666
2+1 FURNISHED FLAT IN KADIKOY,40.99332,29.03086
FURNISHED 1+1 FLAT IN KADIKOY,40.99134,29.03096
room in princes' islands for 2 ,40.87687,29.09854
Every Places Only 5 min to walk,41.03685,28.98719
,41.04613,28.99888
Rooms Available in Moda,40.98451,29.03397
Cozy and comfortable flat in Pera,41.03151,28.97435
Design Penthouse in Beyoglu!,41.03131,28.97496
Cozy design flat in Beyoglu,41.03132,28.97394
"cozy,economical &well located flat",41.01387,28.93462
Minyon Istanbul - Pretty Home,41.03586,28.99112
Cozy historic flat with garden,40.99698,29.02766
Amazing Bosphorus view in Ortakoy,41.05098,29.0205
Furnished Duplex Apartment (Sisli),41.05911,28.98901
"Duplex, terrasse and view",40.99717,29.02825
Honey House Apartment Istanbul,41.00863,28.97493
"Overland Apartment ""Family suite 2+1""",41.04459,28.98597
A modern face in the local area,41.0029,28.97784
Cosy Flat with a Terrace with space,41.0738,29.02214
CENTRAL LOCATION /COOL NEIGHBOURHOOD /TAXIM,41.04862,28.97844
beatiful scenery in downtown moda,40.98448,29.02414
❤️ 1BR★DELUXE★COZY★DESIGNER★GALATA TOWER!,41.02861,28.97297
"At the heart of İstanbul, Taksim..",41.03702,28.97477
Welcome to Star Holiday Hotel !,41.00829,28.9776
Only five minutes walk to Taksim 3,41.04205,28.98662
Bright Central Artist's House,41.03117,28.98452
Raman Sultan Suites,41.00615,28.96455
❤️ COZY STUDIO★DESIGNER FURNITURES★GALATA!,41.02685,28.97459
Confy & spacious flat in Taksim,41.03081,28.98217
Comfy room in a duplex flat.,41.08747,29.00308
Bosphorus View Besiktas Istanbul,41.08873,29.02052
Fantastic view 30 second to Center,41.03417,28.98548
,40.99577,28.92752
Magnificent Istanbul view  & stylish flat,41.03098,28.98572
Taksim Green House 6bed Female Dorm,41.04277,28.98498
,41.04504,29.00258
a room near to taksim square! ,41.03021,28.98334
Private room - Furnished - Laundry,40.97413,29.08468
"Sweet Home, Heart of Istanbul",41.03901,28.9927
"Comfortable, Cosy Flat In Kuzguncuk",41.03247,29.03202
Perfect Location/Beşiktaş,41.04592,28.99999
A Cozy Flat with Affordable Price!,41.06032,28.9979
Amazing hotel in centre istanbul,41.00747,28.97579
Cosy Room in Taksim,41.03767,28.97577
Penthouse in the center of İstanbul,41.04667,29.00009
very close to Taksim,41.05798,28.98437
€350 RENTROOM,41.06864,28.97306
private room in the bathroom,41.00323,28.90856
2 BED 2BAHT- in the Heart of historical  sleeps 6,41.00582,28.97111
Near Airport and 15. min Taksim,40.98007,28.87762
CENTRAL KADIKÖY -MODA,40.98781,29.0207
Disinfected Penthouse Terrace (center),41.0365,28.97504
Central Flat With Golden Horn Wiev,41.02977,28.9706
HAN HOSTEL AIRPORT NORTH,41.01452,28.82028
Daily room rent in Taksim area,41.04368,28.98467
"Lovely sunny flat, very central!",41.03467,28.98761
A Cozy Room In An Architect's Flat,41.05069,29.00577
peace and quiet,41.17565,28.88988
Best Location In Santa Sofia,41.00695,28.9787
Best Location In Santa Sofia sultan,41.00514,28.97989
4. Levent`te Metro`ya yakin,41.09187,29.01882
Central - Peaceful- Comfortable,41.08528,29.00086
Room near Taksim,41.0098,28.8357
Duplex Penthouse Terrace & View :),41.03062,28.98076
Lovely&Quiet flat in Cihangir,41.03365,28.98736
,41.05292,28.98111
Flat for rent 15 min.to Taksim,41.03173,28.98661
"Sunny Room in Cihangir, Taksim",41.0334,28.98208
Comfy and Spacious Flat in European Bosphorus,41.04598,28.99884
,41.05489,29.00902
cozy 4 people apt in Golden Horn,41.03127,28.94885
FLAT in THE GOLDEN HORN - SEA VİEW,41.03446,28.96309
Large family reunion- Galata Tower 7Brm-7Bth -18pp,41.02757,28.97413
Violin Boutique Hotel Family Room,41.00263,28.97776
Excellent Location and price !,41.00884,28.97592
Istanbul Cihangir wt Bosphorus View,41.0324,28.98457
Charming Green Ivy Flat in Cihangir,41.03358,28.98189
TAKSİM İSTİKLAL,41.03887,28.98173
Room with double bed in Mecidiyeköy,41.06007,29.00015
Cosy Apartment at Besiktas Center,41.05334,29.00659
Spacious 3 bdr duplex apt in centre of Istanbul.,41.03129,28.98216
"Private Room in Cihangir, Taksim",41.03108,28.98172
House with 2nd. Bridge View,41.08843,29.04918
Taksime 15 dakika Osmanbey'de daire,41.05194,28.98636
Central Location+wifi+balcony,41.01374,28.92554
Jacuzzi in Red Room,41.03657,28.97825
Ahşap ve tarihi bir binada oda,41.00503,28.97716
Ahşap ve tarihi bir binada oda,41.00366,28.97769
Ahşap ve tarihi bir binada oda,41.00493,28.97791
Özel Müstakil Oda,41.00341,28.97748
lüks otel odası,41.00241,28.97763
THIS IS A CHANCE-ROOM  FOR FEMALES,41.04689,29.00709
Princess islands -prinkipo/büyükada,40.86944,29.13449
45 m2 appartment in Sisli Istanbul ,41.05097,28.98574
clean and well located modern flat,41.06153,28.98119
Cozy home in luxurious district,40.97516,29.06803
Cute 1BD in charming neighborhood..,41.07099,29.04013
very central private room ,41.0441,29.00777
Amazing sea view with Hagia Sophia and Old Town,41.02949,28.98459
Studio At Center Of Taksim Square,41.03984,28.98288
Wonderfull flat with terrace and city view in Ulus,41.07129,29.02474
Taksim suite up to 2,41.03914,28.98196
"Huzurlu, modern yaşam alanı!",41.10696,29.08145
tarihle içiçe bir tatil,41.00544,28.96715
DESIGNER HOUSE & GARDEN in TOP BEACH AREA,40.97281,29.06622
"Luxury renovated, Proper Flat- Beyoglu 2",41.03709,28.97492
"Luxury renovated, Proper Flat- Beyoglu 3",41.0363,28.97563
,41.03487,28.98788
Cihangirde 1+1 ferah ve şirin,41.03313,28.98748
International apartment next to Bogazici Uni,41.08821,29.04658
"Doğayla iç içe, huzurlu, site içinde güvenlikli...",41.09828,29.08798
Jacuzzi Romantic Room in Taksim (Balcony),41.03588,28.97701
Pet freindly cute home,41.01554,29.04041
Detached Wooden House with garden,40.86722,29.13313
Quiet flat in the center of Beyoglu,41.03678,28.97497
Cosy Flat In The Centre,41.05411,28.97875
STYLISH AND ECONOMICAL STUDIO,41.0606,28.98506
kiralık daire,41.03018,28.98152
welcome to do my home ;),41.03886,28.97393
Bright and cosy apartment in Galata,41.02868,28.97527
Quiet room in a historical center ,41.02736,28.95233
A flat in Centre of İSTANBUL,41.0315,28.98734
Queen | All Colours Concept (3bedroom+1Livingroom),41.03656,28.97524
A PENTHOUSE WITH A BOSPHOURSE VIEW,41.0284,28.97515
DELUX SUITE  IN GALATA,41.02711,28.97532
Galata Junior Suite street wiew,41.02669,28.97755
journey to history...,41.00751,28.94989
,40.9768,29.07158
quıte and lıvely flat for famıly,41.04726,29.00606
Fully-restored Kuzguncuk residence,41.03355,29.03211
A cozy room in Cihangir,41.03358,28.98299
Cozy and large flat in Taksim,41.0362,28.98034
Room&Breakfast at the centre..,40.9887,29.04697
A ROOM AT KADIKÖY,40.98764,29.03157
"İnthe Historical Center of İstanbul, Kadıköy",40.99704,29.02841
Cute and Modern House in Cihangir .,41.03249,28.9863
A studio in the heart of Taksim,41.03556,28.97274
,41.08698,29.03379
❤️GALATA★DESIGNER★COZY STUDIO!,41.02662,28.97327
Central flat in Besiktas for 4 peop,41.04505,29.00191
"Residence (Swimming Pool,Fitness)",41.00871,29.11766
Triplex Garden House in Cihangir,41.03224,28.98226
ÖMERHAYYAM APARTMANINDA  ,41.03645,28.97602
IN OMER HAYYAM APPARTMENT,41.03668,28.97636
"Central Flat in Old City, Istanbul",41.00481,28.97203
Full Flat in Old City Of istanbul,41.00392,28.97018
Luxury residence at great location,40.99071,29.104
A Cozy Flat in Princess Islands,40.857,29.12001
"İstanbul, Besiktasta kiralik oda.",41.04923,29.00409
HomeDeck - Dublex,41.03562,28.97339
HomeDeck - Balcony,41.03562,28.97339
cozy and stylish apt. in Cihangir,41.0355,28.98579
HomeDeck - Terrace,41.03562,28.97339
Kadıköy/ Seaside,40.99177,29.02713
Galata & Brand New & 3 Bedroom,41.02864,28.97846
Comfy&Peaceful Double Room,41.0445,28.98344
Boho Flat in the Chic Center!,41.04882,28.9983
Huzur bulabileceğiniz bir ev,41.10314,28.79267
,41.04947,28.98364
Comfortable flat at the heart of Istanbul!!,41.03122,28.98247
Amazing Flat! Amazing View!,41.03065,28.98548
siradan bir 3+1 daire ,41.08513,28.89868
"Taksim Meydan 'a 5 dk ,İstiklal 2dk",41.03593,28.98091
Near Bosphorus and Transportation,41.0245,29.01158
studio double room with kitchen,41.00511,28.97105
Pretty Suite Studio  in Taksim,41.03719,28.98176
LuxeTerrace Studio inTaksim Square,41.03719,28.98176
Daily/Weekly rooms for rent in IST,41.05255,29.02188
,41.05072,29.00416
Relax in Taksim,41.0358,28.97635
Historical flat near Galata Tower,41.0276,28.97639
chambre  à louer dans Üsküdar,41.02367,29.02258
Double Room by Window,41.03496,28.97745
Deluxe Flat in Galata,41.02814,28.97387
Winter on the Terrace: Single Room in CIHANGIR,41.03231,28.98393
Balcony Room in Dila Suites,41.03453,28.97556
Junior Suite in Pera,41.03445,28.97548
Central,40.99561,29.02595
Cozy room,41.08872,29.04937
Town Center & Big Apartment!,41.03016,28.97246
Taksim Dora Hotel Tripple Room,41.03531,28.98063
Taksim Dora Hotel Suit Studio,41.0364,28.9817
VERY CENTRAL FLAT WITH SEA VIEW,41.03171,28.98567
STYLISH APARTMENT( 1+1) @ BEYOĞLU,41.03126,28.97387
"Beyoglu, Istanbul, the city center",41.03188,28.96569
"Good Location, friendly-comfortable",40.99943,29.13844
Spectecular Bosphorus View and Terrace in Cihangir,41.03111,28.98622
Decent Duplex Floor on Burgazada,40.87992,29.06913
Your Home,40.99457,28.92746
Historical duplex house in centrum,41.03348,28.98687
Dream | Bosporus Ship Concept (Small Studio),41.03758,28.97485
Dream | Pink Beauty Concept (Suite),41.03758,28.97485
Fully Furnished Cozy Apt in Tarabya,41.13075,29.04396
20 minutes to downtown by Metro,40.99369,29.08608
Dynamic Luxury Stay-Cihangir 2,41.03172,28.98113
DÖNEMSEL KİRALIK,41.03293,28.67713
Dynamic Luxury Stay-Cihangir 3,41.03172,28.98113
Dynamic Luxury Stay-Cihangir 4,41.03172,28.98113
Beyoglu Studio Flat,41.03624,28.98172
Rent for daily/weekly/montly,41.05581,28.97975
"iyi konum, keyifli ortak alan.",41.04594,28.99879
"ELEGANT, AMAZING VIEW, ITALIAN TOUCH IN CIHANGIR",41.03257,28.98244
Feels like at home in Cihangir ,41.03215,28.98526
Comfortable Room in Besiktas,41.04449,29.01043
"Charming Apartment, Middle of City ",41.02386,28.9752
Stylish;heart of city;with sea view,41.02385,28.97518
A peaceful place at the city center,40.97187,29.08604
Cozy 1BD with Turkish breakfast,40.97756,28.85663
Apartment 1 - Balat Palace,41.03366,28.94963
Sunshine | Silver Bird Concept (Terrace Suite),41.03555,28.97319
"Old style, in the heart of İstanbul",41.03414,28.97423
Nice apartment in Cihangir area,41.03389,28.986
Lovely Suit Studio in the Taksim,41.03718,28.98181
"Ferah, toplu ulaşıma 1 dk , sahile 5 dk mesafede",40.93636,29.11824
City Center Dublex Apartment,41.04543,28.98588
★Huge Flat★W/GARDEN★3BR★UP To 10ppl,41.03157,28.98075
Center of Istanbul,41.07121,28.99369
Blue Mosque Garden in Sultanahmet,41.0068,28.97829
Large groups-GalataTower-4rm-3Bdrm-3Bth-1st flr,41.02697,28.97408
Peaceful Spot on Burgazada Istanbul,40.88099,29.06501
Guest room in a brand new apartment,41.04699,28.98298
Dynamic Lux Stay-inCihangir-Terrace,41.03104,28.98074
Dynamic Lux Stay-Cihangir- Economic,41.03172,28.98113
Sultanahmet Sea View Family Apart ,41.00597,28.97048
Cozy room in Moda / Kadıköy,40.98932,29.02232
Cozy and quiet private room,41.07589,29.02291
Homely Two Storey Loft in the heart of Cihangir,41.03227,28.98399
"KADIKÖY- MODA ,clean,kind, SEA VİEW",40.98188,29.03017
Cute and Modern Room in Cihangir,41.03053,28.98855
Classic 2Be Apartment on Akbiyik St,41.00471,28.97952
"3Be Apartment, Next to Blue Mosque",41.00427,28.97903
"Nice, Large, Modern, Comfortable",41.06758,29.07272
Sıradan bir oda... ,40.98764,29.06544
Whole Flat with Bosphorus view ,41.02459,29.01829
PERA NEUF LUXURY STUDIO @ BEYOGLU,41.02841,28.97268
Confortable Room in Kadikoy,40.98525,29.04745
Studio In Central Location Taksim,41.03609,28.97414
Lüks Ev,41.16821,29.0535
apartment with a fine view/Taksim,41.03333,28.98631
historical triplex building,41.02835,28.94839
beylikduzu 3 bedroom apartment,41.00505,28.67774
Cozy flat with a garden balcony,41.03548,28.97641
"New, Luxury, Proper Flat- Beyoglu 4",41.02872,28.97664
3 bedroom apartment,41.0115,28.65335
small and quıte room ın center,41.04733,29.00542
GREAT LOCATION GREAT HOME FR FEMALE,41.05697,29.00203
In the center of downtown,41.06176,28.98456
Fully Furnished & Stylish Flat in centre.,41.0341,28.9801
2 Bedrooms Flat in Center Besiktas,41.04763,29.00261
TRIPLEX HOUSE IN CIHANGIR BEYOGLU,41.03187,28.97885
"Central,cozy with private bathroom ",41.04525,28.98347
Büyükada sahilinde deniz manzaralı çatı katı,40.87253,29.13185
Istanbul - Taksim (Private Room),41.03452,28.97387
Apart Room * 1 minute walk to metro & ferry stop,41.02049,28.96286
Flat in Besiktas & Nisantasi Area,41.04674,28.99924
Special Offer for Visitors!,40.98666,29.03337
DOUBLE ROOM IN PERFECT LOCATION,40.98983,29.03097
10 Minutes to TAXIM,41.0355,28.97066
"Bosphorus, Pool, Garden Terrace in Soytez Beykoz",41.10981,29.11261
Cozy Friendly Room,41.0328,28.9829
Modern flat in centr of Sultanahmet,41.00608,28.97022
Explore Istanbul's Asian side !,40.97492,29.0546
With a pool and gorgeous views!!!,40.86137,29.11606
"Central, Private Room with Garden",41.06195,28.98384
Taksim'de Ege rüzgarı! ,41.03473,28.98432
Taksim'de 3 kişilik modern oda!,41.03425,28.98156
Etiler | Site İçerisinde Ferah Ev,41.08457,29.034
Apart 1707,40.97981,28.87768
Very Central Flat With Garden,41.03064,28.97965
The accomodation is Taksim/İstanbul,41.03618,28.9815
klima kombi  güvenlik şehir merkezi,41.02893,28.93522
taksimde fulll manzaralı daire,41.03642,28.97858
Family Farm House in Istanbul,41.10296,28.39968
Very Central Nice Flat,41.04812,29.00467
2 Rooms Fully Furnished for Expats,40.91884,29.2986
istiklal caddesine 1 dk ,41.03361,28.97891
Kadıköy/Seaside,40.99165,29.0255
A private room in the historical pe,41.01149,28.93525
"Cozy and nicely decorated, City Center !",41.05207,28.9847
Coolest flat in Besiktas!,41.05647,29.00641
Un séjour dans le paradis ,40.87633,29.0935
Room with big balcony,41.03449,28.98443
Modern House in the heart of City,41.04404,29.00264
Foreign flatmate wanted!!,41.03046,28.98568
Great Location 07,41.03571,28.97565
In the center,41.03697,28.97519
Room at the center of Kadikoy,40.99035,29.02669
Modern bir dairede merkezi bir yer,40.98434,29.06927
Stylish Flat  near to Bosphorus,41.07551,29.0246
Whole floor&terrace @ Bosphorus,41.05277,29.02262
Sweet Flat near Teşvikiye and Beşiktaş,41.046,28.99871
Spacious Bright Stylish & Central,41.06146,28.98469
cozy flat at the centre of Besiktas,41.04719,29.00135
A Silent Cosy Room in Sisli-Fulya,41.05926,28.99324
Beşiktaş merkezde stüdyo daire,41.04854,28.99914
"NEW! Best Location, Bosphorus View, Chic & Artsy",41.03218,28.98657
ETİLER AKMERKEZ KARŞISI EŞYALI,41.07579,29.02318
Central and Luxury Apartment ,41.0601,28.98641
Hesaplı güvenli oda,41.00499,28.97751
Looking For a Flatmate,41.03751,28.95218
Best Location in Istanbul - Lovely,41.06487,28.9947
LUXURY FLAT WİTH TWO GARDENS,40.99519,29.03364
Picturesque Garden At Cihangir,41.03337,28.98704
Situated in The Heart of Istanbul. ,41.06408,28.99795
Just a chance for October! Cihangir,40.98411,29.02959
Great Location 08,41.03566,28.97596
Downtown Studio 02,41.0363,28.97468
Chef Apartment Galata,41.02736,28.97683
istanbul'da özel oda,40.96945,29.11163
SUPERİOR 3+1 DUBLEKS VİLLA,40.87384,29.1281
Butique room in the center,41.05693,29.0075
BAHÇE MANZARALI +HAVUZLU 2+1 ÇİNİLİ,40.87426,29.1284
TERASLI HAVUZLU 3+1  DAİRE,40.87336,29.12877
,41.08831,29.00437
Big Room&Balcony With Istanbul View,40.98618,29.04839
Comfortable and friendly atmosphere,40.99733,28.76726
LUXURY DAİRE 3+1 T3,40.87335,29.12761
DENİZ MANZARALI DAİRE T4,40.87461,29.12909
KİRALIK ODA,41.07405,29.03699
BAHÇE MANZARALI DAİRE 2+1 Y1,40.87415,29.12861
STANDART DAİRE 2+1 Y2,40.87384,29.1281
"Middle of Cihangir, near Taksim",41.03171,28.98056
BALKONLU DAİRE 2+1 Y3,40.87478,29.12875
DENİZ MANZARALI DAİRE 2+1 Y4,40.87346,29.12714
Historical big flat@city center,41.03754,28.97532
Beautiful sunny room in  Cihangir,41.03287,28.98071
A cosy single room in Feriköy Şişli,41.05269,28.97686
Anatolian Side Luxurious Spacy apartment!!,40.97867,29.04268
Perayata Studio#1/near Taksim,41.03138,28.97065
The best view of Istanbul,41.02337,28.97458
Perayata Flat#1/near Taksim,41.02979,28.9703
My house to blue mosque 10 mnt walk,41.00404,28.97078
Kadıköyde eşsiz lokasyonda kiralık oda,40.99402,29.0362
Great House in Taksim,41.04118,28.98701
Central & Peaceful Flat in Moda,40.98326,29.03082
"Comfortable  place,near city center",41.05968,28.99454
Merkezde Orman Manzaralı Çatı Katı,41.03936,29.11412
LOVELY DOUBLE BED ROOM IN CIHANGIR,41.02955,28.98433
cosy room & lovely home near Taksim,41.04794,28.98382
stylish&peaceful w/direct seaview,41.12081,29.05594
"bosphorus near to bogazici üniv.  bebek, etiler,",41.08785,29.05577
OASIS SULTANAHMET AT THE HEART OF ISTANBUL,41.00591,28.97093
Kozzy Flat @heart of Bagdat Street ,40.9634,29.07957
HISTORICAL COZY APARTMENT / 4 ROOM ,41.03678,28.98576
Sweat and Comfortable Room -Kadıköy,40.99471,29.03383
Cihangir Home with a Bosphorus View,41.03154,28.98673
Central Istanbul Experience,41.06039,28.98492
Perayata Studio#2/ near Taksim,41.02993,28.96941
Taksim Mass Apart,41.03943,28.98135
Basement Double,41.00565,28.9698
OLD CITY ROOM- GROUND FLOOR,41.00557,28.96973
One Bedroom Apartment,41.00575,28.96972
OLD CITY DELUXE APARTMENT 1+1,41.00566,28.96977
Rahat Ulaşım/Vialand Yanında,41.07473,28.92724
ENTIRE FLAT - PEACEFUL & CENTRAL,41.0408,29.00467
,41.02914,28.9828
1 +1 Flat with old city view,41.029,28.9807
Cosy Room in Üsküdar,41.01504,29.0793
Very central room with balcony,41.04468,29.00397
"Buyukada Apart, seaview,garden",40.87072,29.12192
Feel at Home in Istanbul,40.99616,29.02615
ONEBEDROOM APARTMENT WİTH KİTCHEN.,41.00429,28.96455
beach sea sunbath in the black sea,41.16952,29.63162
Flat with an amazing view,41.03462,29.02866
Cozy private room in Beyoglu 4,41.03697,28.97736
Fine Studio Apartment in the Taksim,41.03718,28.98181
Luxurious Flat with Great View,41.04382,29.00621
Twin Studio next to Tuyap Congress Center,41.02534,28.62796
Private Room in City Center,41.06994,28.98591
Full deniz manzaralı muhteşem daire,40.97531,28.71182
4mn WALK2 TAXIM SQ.SMALL FULL FLAT,41.03823,28.98217
İstanbul Balat Historical Peninsula,41.03227,28.94815
Cozy house in cihangir,41.0306,28.98269
Explore Istanbul open-mindedly,41.04729,28.97983
One Bedroom Apartment w. Balcony in Galata (A12),41.02648,28.97536
Dream House,41.09479,29.90637
Planet Paprika Aparts,41.03577,28.9839
Luxury 1+1 next to Tuyap Fair & Congress center,41.02477,28.62598
1+1 Residence next to Tuyap Congress Center,41.02557,28.62759
Studio Residence with double bed next to Tüyap,41.02531,28.62609
Premier Two Bedroom Apartment,41.02949,28.97325
Best Possible Location Downtown Istanbul,41.03262,28.98373
LUXURY DOUBLE STUDIO NEXT TO TUYAP FAIR CENTER,41.02442,28.62602
FAMİLY ROOM WİTH KİTCHEN,41.00446,28.96437
LUXURY  ONE BEDROOM APARTMENT,41.00451,28.96429
DELUXE KİNG SUİTE ROOM,41.00443,28.96439
Studio Apartment for Long Term Rent,41.0317,28.97735
Trendy & Central Flat with Terrace,41.05071,28.99275
Bright room in Istanbul Kadıkoy,40.99582,29.02888
"Beautiful Flat in Downtown, Taksim",41.04249,28.98209
Romantic Holiday in Romantic City!,40.97017,29.06379
Etiler 2 Bedroom Modern Penthouse w/ Jacuzzi!,41.08352,29.02867
Cozy Room in Central Location,41.05044,28.98356
cozy flat with garden in Beyoglu,41.03467,28.99093
"Buyukada Istanbul, with Seaview and Garden",40.86855,29.12272
TAKSİM GÜMÜSSUYUNDA,41.03623,28.99108
,41.03274,28.9481
CENTER & COMFORTABLE,41.06024,29.00807
★ PATIKA SUITES ★ 2 Bedroom with Balcony,41.03072,28.98022
RIHTIM/KADIKOY,40.98741,29.02453
★PATIKA SUITES ★ Large Luxury 1 Bedroom Apartment,41.03069,28.98017
Room in Well-Designed Cozy Flat in Moda,40.98281,29.02946
center of istanbul duplex flat ,41.06332,29.00363
Peaceful and Modern Apartment,41.05101,29.02129
kendinizi evinizde hissedeceksiniz.,41.03855,28.9851
Deluxe Double  Apart Sultanahmet,41.0027,28.96952
Cosy studio flat w/ kitchenette,41.0063,28.96519
Wanna stay in Rome of Istanbul?,41.01959,29.02884
Heart of Istanbul,41.06384,29.00118
taksim studio flat,41.03448,28.98304
10 MINUTES TO TAXIM,41.03411,28.9717
Modern apartment close to downtown,40.93736,29.14045
"Salacak'ta Deniz Manzaralı, Teraslı",41.01141,29.01502
"Central, Clean&Comfy + Pvt. Parking",41.06415,28.98003
PrivateRoom wıth balcony in Kadıköy,40.9905,29.02502
Istanbul. suadiye sahilde keyfli bahçe katı,40.95686,29.08486
Blueway Residence,41.0489,28.98603
great room in the heart of the city,41.03344,28.98801
Nice Flat in Sultanahmet,41.00708,28.97014
Just 3 min. Walking from subway station,41.05632,28.98399
furnished lux apartment with3 rooms,41.00847,28.94889
1 Room in Large Flat Near CNR EXPO & Metro,40.99256,28.84455
Fully furnished luxurious apartment,40.99679,29.10855
COME&SEE THE HOSPITILITY OF TURKISH - only ladies,41.06524,28.98407
Nice big room in central kadikoy,40.99727,29.02836
Cozy Bright Flat on The Asian Side,40.96796,29.0987
Cosy room in Istanbul,40.99621,29.03326
★PATIKA SUITES ★  Cozy 2 Bedroom Apartment,41.03135,28.98051
Private Apartment 2,41.00519,28.98203
Cosy historical antique home in taksim / istanbul,41.03448,28.97379
Şişli Merkez,41.06145,28.98715
Modernly Renovated House looking over Golden Horn,41.03468,28.97385
Smal Penthouse 3 mn.walk İstiklal ,41.03724,28.97597
Affordable Room Travellers&Expats,41.04865,28.98711
STUDIO W/ BALCONY&WIDE CITY VIEW,41.05215,28.99027
Chambers Of The Boheme Hostel,41.03484,28.98192
Sunny & Cozy Bedroom,41.00311,29.04282
Spacious room Kadıköy Yeldeğirmeni,40.99439,29.03038
"Taksim Romantic Suites Jacuzzi,",41.03623,28.97632
Taksim guest house 3,41.03652,28.98023
Taksim guest house 4,41.03627,28.98052
Taksim guest house 5,41.0368,28.98126
Villa Two Bedroom Old City,41.00401,28.96522
Great sea view flat in Samatya,40.99891,28.93199
Luxurious Hotel Room with breakfast in Taksim,41.0386,28.98319
2 Minutes to Taksim Square & Breakfast,41.0375,28.98243
★PATIKA SUITES ★ Ideal for Large Groups/Families,41.03074,28.9802
Bright & Cozy Room Close to Taksim,41.05601,28.98307
Comfortable Room in Moda,40.98391,29.02238
FEEL SPECIAL IN YOUR TRIP,41.02002,29.01114
Comfy room 1 min. To Taksim square,41.03578,28.9853
Taksim civarında kiralık oda,41.03606,28.9696
"Beautiful, big and central. ",41.03203,28.98316
Luxurious sea view house in the city center,41.00188,28.93513
Confo&Cosy flat close to the sea,40.98632,29.02396
Appartement Istanbul en bord de mer,40.95699,28.81716
Penthouse with great view &location,41.02392,28.97518
"Double Or Twin room/5 minüte tocenter,hagia sophia",41.00349,28.97644
Suitable for groups  4 Pax 1+1,41.02644,28.97585
Lightwell house in Istanbul center,41.04547,29.0
"Near the Bağdat Street, New Home",40.97311,29.07092
Studio apt in 400 meters to center,41.00435,28.97247
Nice one bedroom apt in Sultanahmet,41.00592,28.97171
1+1 apt in the historical center ,41.00445,28.97049
Full furnished apt in Sultanahmet,41.00543,28.97231
Peaceful and stylish flat,41.08858,28.8988
Cozy & Design Flats in Beyoglu,41.0318,28.98056
Cozy room at Cihangir (pet friendly),41.03466,28.98541
*Stay SAFE Flat*! Taksim BIG Flat CHEAP (8 guests),41.03172,28.9726
Happy House ,41.05326,28.98366
Rent a home in Istanbul,41.05975,29.00388
Nice room with balcony,41.04829,28.9834
Herrliche Bleibe  am Taksim Platz,41.03248,28.98123
cozy room  in the centre of cihangir,41.03092,28.9831
HIDDEN GEM NEAR TAKSIM,41.03318,28.98035
Large House with Balcony/4-6 Person-Taksim Sq.3Min,41.04026,28.98175
Spacious Room to Rent nr Taksim &Nisantasi,41.04602,28.98447
City Center Gem,41.03596,28.99069
Bed and Breakfast in Old City,41.00228,28.97396
Taksim Elisyum redidans 2+1 48,41.04334,28.98243
One-Bedroom Apartment (1+1 Suite),41.03184,28.98602
Bright Studio 30 second to Taksim !,41.03948,28.98233
Nice room at super-central location,41.03451,28.98264
Amazonia in Taksim,41.03787,28.97663
istanbul pool view room ,41.03114,28.6699
,41.06099,29.00042
nisantasi studio with garden,41.05022,28.98677
"Easy,Trustful,Clean,Real Home",40.99504,29.02692
LOVELY ROOM BY THE BOSPHOROUS,41.13856,29.05191
istanbul Taksim Green House 6bedmix,41.04176,28.98442
Amazing City Centre Location Luxury,40.96363,29.08524
Cozy Family Apartment on Main Street @KucukYali,40.94783,29.10636
2 Minutes to Taksim Square Deluxe Apartment,41.0375,28.98242
İstanbul CityCenter Levent/Levazım,41.06286,29.01729
istanbulun merkezinde özel oda,41.04569,29.00557
CITY CENTER FLAT ROOM,41.04333,28.99873
CTS Taksim Elysium Residence 48 (2+1),41.04213,28.98236
CTS (18)Taksim Elysium Residence Apart (2+1),41.04223,28.98186
İSTANBUL'DA SICAK BİR EV,41.07248,28.99766
Private Double Bedroom in Tomtom Galata Tophane,41.02665,28.9775
"Full studio, with private bathroom",41.00821,28.94795
"Central location,modern apartment",41.06093,29.00167
Private room near İstiklal Street,41.03292,28.97721
Near the İstanbul airport. Silence safety a place.,41.18505,28.88199
Bright Cosy Room - Perceft Location,41.04768,28.97964
stylish room in İstiklal Taksim,41.03601,28.97448
"Big flat, close to the Center :)",41.00764,28.89163
Triple RM in the heart of Istanbul,41.00456,28.97541
STAY IN THE HEART OF ISTANBUL!,40.97192,29.07045
Cozy room in Fındıklı -2 mn to tram,41.03275,28.98947
Cozy Flat with kitchen and bathroom,41.00361,28.98086
Great View and Terrace in Balat,41.03373,28.94529
İn apartment 1 room,41.07394,28.9553
Centrally Located 1 DB in Istanbul,41.00282,28.9766
"Convenient Flat in the Center, IST",41.04906,28.98139
"Cosy home, 3 min to osmanbey metro",41.05572,28.99114
Istanbul steps from Taksim lxry 1BR,41.03561,28.98905
Cozy room in the city center,41.03562,28.97073
Perayata Flat#2/near Taksim,41.03199,28.97052
LUXURY MID. STUDİO FLAT,40.99533,29.03375
** Amazing room w/private bath in Sultanahmet,41.00274,28.97416
** Deniz Houses Hotel-Double room Sultanahmet,41.00266,28.97412
"Cosy, central flat in Galata, No601",41.02393,28.97521
"Very central, charming flat, No:501",41.02393,28.97524
"Historical flat,heart of city,No401",41.02393,28.97524
** Sea view room w/balcony in Sultanahmet,41.00273,28.97415
Renovated Apartment in City Center,41.04471,28.98376
Central Cihangir Flat in Beyoğlu,41.03302,28.9825
In the Centre of Old City,41.01256,28.95543
DISINFECTED CUTE APARTMENT IN  PERFECT LOCATION,41.02772,28.97856
800m to Taksim Square,41.04513,28.98563
Central Flat Taksim Square Istiklal,41.03489,28.98391
CENTRAL MODERN FLAT IN MODA,40.98156,29.02446
Private Room in Cihangir,41.03243,28.98563
Zentrale Wohnung in Istanbul,41.04466,28.98445
*** Naz Wooden House  Inn - old city of Istanbul,41.00348,28.97876
*** Sea-View  Room in The Old City,41.00347,28.97875
charming 1 bedroom city apartment,41.09082,29.01463
Delux Studio in Taksim,41.03735,28.98042
Large Studio(Apartment) in Taksim,41.03862,28.98136
Cosy apartment in Beyoglu,41.03556,28.97379
Studio with Terrace(1+1 Apartment),41.03723,28.98235
Sky Cabin ,41.03908,28.98267
House in good condition,41.03439,28.98862
LUXURY STUDİO APART,40.99532,29.03396
LÜX STÜDYO DAİRE,40.99541,29.03405
LUXURY STUDİO FLAT,40.9953,29.03369
Ortaköy/Bosphorus,41.05122,29.02588
Chic and vintage old city center,41.03936,28.98153
Hidden but Reached by Music,41.03402,28.98496
"CENTRAL,Next toCEVAHIR  ,modern 3BR",41.06154,28.99528
Single Room Cihangir in Taksim ,41.03352,28.98636
Comfort van thuis met service  ,41.08362,29.0042
Studio apartment near metro.,41.08528,29.00473
Comforts of home with extra service,41.0853,29.00424
Takes 10minutes to go any transport,40.99581,29.0281
Center of ıstanbul,41.06781,28.99226
Close to everywhere İn istanbul,41.06465,28.99348
Cozy Shanti House,40.99355,29.03001
Comfortable Flat in Cihangir Taksim,41.02944,28.98559
Istanbul Bebek,41.0802,29.04413
İstanbul'daki Eviniz,41.00489,28.97643
One of the best option in Istanbul,40.98659,29.02119
Stylish & Cozy Flat in City Center!,41.03409,28.98796
70m2 in city center,41.02464,29.01014
,41.03476,28.9833
Smart Chic Flat in the center,41.08031,29.00484
Flat in Beyoglu (15 mins to Taksim),41.04266,28.95122
A Private Room in Beşiktaş,41.04411,29.00262
,40.96434,29.0661
KONFOR ARATMENT - Nisantasi,41.04781,28.99486
Living in the heart of istanbul,41.04196,28.98519
TURQUOISE- 5-MINUTE WALK FROM HAGIA SOPHIA,41.00591,28.9708
your personal retreat home - multicultural feeling,41.05036,29.02589
great house,40.91036,29.19435
"Best Location,Super Comfy,All InOne,",41.07527,29.00519
Room with private bathroom in Pera,41.03174,28.9703
"Taksim-Dream, big & new & calm ",41.03616,28.98796
New and cozy flat atCenterOfKadikoy,40.99618,29.04386
"center of city , peacefull,  home",40.99209,29.02931
Clean Room-Perfect Transportation,41.07093,28.99763
güvenli,41.00946,28.97338
deluxe one bedroom wıth lıvıng room,41.00857,28.8948
"Perfect location, sweet home",41.0351,28.98471
Kaboom Guest House Suite @Taksim Downtown,41.03434,28.97104
Private room in the heart of Besiktas,41.04382,29.00369
Nice Flat At Cihangir,41.03259,28.98475
3 bedr apart 5 min from CNR Expo & Ataturk airport,40.99002,28.84521
Discover İstanbul  ,41.08854,28.91035
In The Heart of Istanbul's Taksim,41.04181,28.98459
"Room in Center flat, 5min walk to Taksim Sq",41.03,28.98219
FİRUZAĞA MAHALLESİ KİRALIK ODA (KADIN),41.02956,28.98015
A lovely room in moda,40.9829,29.02188
Minyon Istanbul Apartment- Sea view,41.03574,28.99097
Santa Apartment,41.00422,28.96812
** BIG DISCOUNT FOR ECONOMY ROOM B&B,41.00271,28.97421
Ahmet&Murat's Sweet Home,40.9972,28.85447
GALATA★BALCONY★RECEPTION★CLEAN,41.02605,28.97723
GALATA★RECEPTION★CLEAN★STUDIO,41.02739,28.97885
Big antic stdio 3mnwalk Istan.cntr,41.0359,28.9769
Economy Single Bed Room Shared shower-wc,41.01366,28.97877
Standard Double Room,41.0137,28.97872
"Cozy Studio in Taksim, Cihangir",41.02904,28.98155
"AMAZING VIEW , GREAT LOCATION!",41.03259,28.9784
CasaLoBueno#3 Relax Galata Tower,41.02517,28.97425
Minyon Istanbul room no:1,41.0357,28.99112
Studio Private Flat w/ Kitchenette by Grand Bazaar,41.00628,28.96685
Speciality Suite @ Clarion Istanbul,41.06307,28.9895
Bright apt. at the City Center,41.03303,28.98538
❤️  Cozy★PRIVATE JACUZZI★2 min to Metro,41.02578,28.97337
A room of one's own,41.03739,28.97492
Minyon Istanbul room no:3,41.03604,28.99105
Design flat in Beyoglu Istanbul,41.03601,28.97312
Taxim Pera Suites,41.03551,28.98006
Silence: Bright Room in Galata,41.02502,28.97262
Turkey Istanbul Flat Taksim DeluxeRoom 3MinWalk Sq,41.04026,28.98175
Triple Room/1-3 Person-Taksim Square 3 Min,41.04026,28.98175
Minyon Istanbul room no:4,41.03567,28.99106
Beautifully new renovated ,41.04067,28.98167
Beautifully new renovated ,41.0396,28.98254
Turkey Istanbul Flat Taksim Sq.3MinRoomWithBalcony,41.04026,28.98175
Уютный домик 2,41.05457,28.99156
* Million thx for over 1000reviews,41.00316,28.97437
Modern house good location,41.00662,28.97006
Charming Delightful Studio @Centre,41.0267,28.97685
"Full Furnished room,private bath",41.04515,29.00146
İSTANBUL KADIKÖY DAİLY RENT 1+1,40.99517,29.02628
Yusufpaşa Apartelle ,41.05462,28.96416
"Spacıous Room at Cihangir,Taksim",41.03424,28.98718
"Galata Suite Room , Modern Flat",41.02546,28.97663
cosy room out of center,40.94244,29.11158
Comfortable and classy rooms!,41.03766,28.98102
Private Double Room in Osmanbey,41.04819,28.98169
Galata Tower 250 Mt.Modern Suit ,41.02721,28.97701
DUPLEIX SUR LE BOSPHORE,41.08375,29.07824
Central Cozy Apartment in Safe Local Neighbourhood,41.0636,28.98554
Private Cozy Room in Nisantasi,41.0564,28.99289
Modern eşyalı 2+1  Daire,41.0531,28.99436
İSTANBUL. KADIKÖY de MERKEZ tüm daire,40.99537,29.02652
Single Room - Near Golden Horn,41.03982,28.95392
Room in Fatih (Istanbul),41.02432,28.94148
İstanbul'un Merkezi Şişli,41.06028,28.98628
Heart of Fashion district Istanbul,41.05381,28.99065
Galata Towers 250Mt.Familyand Group,41.02589,28.97731
Close house to Kadikoy & Metrobus,40.99368,29.04025
Lovely & Sunny Apartment in Taksim,41.04232,28.98513
Tunel Residence,41.02852,28.9719
Great room in Cihangir/Taksim,41.0351,28.98678
2-bdrm Taksim home w/rooftop terrace + balcony,41.03449,28.98169
Historical Appartment in Galata,41.02606,28.9752
Great couch at Asian side - Göztepe,40.98189,29.06241
Estanbul House,41.01038,29.01461
Luxury Studio with swimming pool,40.99333,29.08492
Deniz metro otobüse ve şehir merkez,40.99283,29.0329
Historical Suite Della Suda @Taksim,41.03215,28.98209
"Great view,superb located penthouse",41.02391,28.97521
Merkeze yakın geniş oda.,41.02081,29.0203
İstanbul taksim Green House Hostel,41.04309,28.98639
Modern Air&Ambiance Duplex Residenc,41.03623,28.97677
Romantic Ambiance in Residence,41.03594,28.97541
a nice room in an antique building,40.99577,29.02935
Aksaray 'da Luks Hotel Konforunda,41.00843,28.9492
Well Located Apartment in Aksaray,41.00843,28.9492
room for rent for short time stays,40.97677,28.86276
A Cosy Apartment near SultanAhmet1,41.00571,28.96611
Historic;central;balcony w sea view,41.02385,28.97523
A Cosy Apartment near SultanAhmet2,41.00373,28.96598
RED STYLISH COSY HOME IN TAXIM,41.03543,28.97597
"Central, Cosy 1+1, Nice View, No602",41.02399,28.97522
* True spirit of Turkish hospitality,41.00315,28.97436
Room for 2 in lovely Kadikoy!,40.99616,29.02845
Lovely home,41.00421,29.05064
Stylish 1+1 Apartment at the City Center,41.03298,28.98832
Pera | Cappadocia Cave Concept (Luxury Basement),41.03642,28.9752
Comfortable and Cosy Room,41.04112,29.00207
Sunny Large Room in Sisli,41.06853,28.99654
"GREAT LOCATION,ROOM IN MECIDIYEKOY ",41.0674,28.99454
istanbul 2 bedroom with tv internet,41.04053,28.95437
Uskudar Loft 100 mq in ASIA side ,41.01109,29.01776
Moderne Studio Wohnung in Istanbul,41.03124,28.94779
Private Room with double bed in A student flat,41.09969,28.99835
Double bed room with balcony in shared flat,41.09404,28.99705
Muhteşem boğaz manzarasının keyfi,41.04761,29.00391
"Family App,ground floor,Aksaray(3+1",41.01186,28.94992
İNCİR ALTI  İSTANBUL,41.02228,29.01856
reasonable price at the city centre,41.03703,28.98136
family home,40.91667,29.13039
"SMARTAPT 7, groovy  flat in Ortakoy",41.05257,29.0274
lovely room in the center,41.03359,28.97437
"SMARTAPT 6, groovy  flat in Ortakoy",41.05247,29.02945
Lovely&Handy room in the centre..,41.03225,28.98794
Super schicke Wohnung in İstanbul,40.96538,29.08547
Apartment in Taksim,41.02963,28.98018
"101 no lift, 1st floor(2 small room + 1 main room)",41.00627,28.95441
BEYOGLU STUDIO FLAT,41.03943,28.98114
Lovely Central Flat in Kadikoy,40.98968,29.02959
Comfortable Flat in a good location of Asian Side,40.98575,29.04978
Beyoğlu - Tarlabaşı'nda 1+1 Dairede,41.03589,28.97699
Far away from the chaos of city,40.82464,29.30946
"Cihangir, Beyoğlu",41.03203,28.98468
"Very close: Ataturk Airport, CNR, Memorial. metro.",40.99447,28.84672
Designer's home at the heart of IST,41.04875,28.98483
"SMARTAPT 5, groovy flat in Ortakoy",41.05127,29.0284
Bosphourus view Wi-fi Business desk,41.09804,29.04997
"SMARTAPT 4, groovy  flat in Ortakoy",41.05381,29.02951
Slice of Heaven in heart of town ,41.05445,28.98666
ÖZYURTLAR N- RESİDENCE,41.02803,28.62373
Relaxıng Seasıde View in Bakırkoy !,40.98051,28.89743
Excellent room in Cihangir/Taksim,41.03494,28.98683
"SMARTAPT 3, groovy flat in Ortakoy",41.05254,29.02884
"Comfortable, Sunny, Cozy&DoubleBed",41.04438,28.99817
"SMARTAPT 2, groovy  flat in Ortakoy",41.05422,29.02807
"SMARTAPT 1, groovy flat in Ortaköy",41.05351,29.02819
GÜLHANE SUİTES,41.01205,28.97768
nice and sunny room in Istanbul,41.04746,29.00109
G,41.01308,28.94991
istanbul house 1,41.00555,28.9674
Sultanahmet`de Muhteşem Daire 1,41.00785,28.97575
"rear front room. Family-friendly, New Construction",41.00626,28.95447
Deluxe 1+1 Apartment For Family& Couples,41.06491,29.00441
Private room in apartment with full furniture.,41.02846,29.07125
Hotel La Piano,41.04881,28.98687
ahmet kaptan,41.01998,29.07514
Family suite,41.05252,28.98872
Cozy loft/entire home and huge terrace in Uskudar,41.02,29.01551
COZY DUPLEX FLAT - GREAT TERRACE,41.04345,28.98268
Deniz metro tiren alışveriş merkezi eğlence,40.99697,28.76515
Deniz metro avm eğlence otobüs durakları,40.99631,28.76359
Trendy apart. with bosphorus view,41.05021,28.99737
Studio Apartments in Old town 2,41.00643,28.96708
